suburb,responsible_authority,rest_area_name,description,site_status,latitude,longitude,lga,region,distance_from,road_name,road_number,link_no,carriageway_code,ne_unique,carriageway_configuration,side_of_road,category,vehicle_type,separated_parking_areas_light_heavy,shade,sign_non_potable,power_outlets,playground,litter_bins,emergency_phones,accessible,access_direction,lighting,tree_shading,tourist_information,sports_ground,shelter,bbq,picnic_table,toilets,baby_change_facilities,lookout,caravan_disposal,power_supply,driver_reviver,food_available,fuel_available,boat_ramp,pets_allowed,water_supply_type,access_direction_cardinal,guid,last_updated
BARRABA,COUNCIL,Lillis Lane - Barraba Show Ground,,,-30.3708,150.60699,TAMWORTH,NORTHERN REGION,1.1km North of Barraba,QUEEN STREET,0000063,0205,A1,"0000063,0205,A1",,RIGHT,REST AREA,BOTH LIGHT AND HEAVY VEHICLES,FALSE,FALSE,FALSE,FALSE,FALSE,TRUE,FALSE,FALSE,BOTH,FALSE,FALSE,FALSE,FALSE,TRUE,FALSE,TRUE,2,FALSE,FALSE,FALSE,FALSE,FALSE,FALSE,FALSE,FALSE,FALSE,NONE,BOTH,AC4597D9E4BB2216,2021-10-25 14:56:44+00
APPIN,COUNCIL,Appin Park,,,-34.19944,150.78889,WOLLONDILLY,SOUTHERN REGION,At Appin,APPIN RD,0000177,0060,A2,"0000177,0060,A2",,RIGHT,REST AREA,LIGHT VEHICLES ONLY,FALSE,TRUE,FALSE,FALSE,TRUE,TRUE,FALSE,FALSE,BOTH,FALSE,TRUE,FALSE,FALSE,TRUE,TRUE,TRUE,4,FALSE,FALSE,FALSE,FALSE,FALSE,FALSE,FALSE,FALSE,FALSE,TOWN SUPPLY,BOTH,0D6E6681EA68C0D7,2021-10-25 14:56:43+00
CRYON,RMS,,,,-30.00549,148.61279,WALGETT,WESTERN REGION,,KAMILAROI HIGHWAY,0000029,0530,A1,"0000029,0530,A1",,LEFT,INFORMAL PARKING AREA,BOTH LIGHT AND HEAVY VEHICLES,FALSE,FALSE,FALSE,FALSE,FALSE,TRUE,FALSE,FALSE,PRESCRIBED,FALSE,FALSE,FALSE,FALSE,FALSE,FALSE,FALSE,0,FALSE,FALSE,FALSE,FALSE,FALSE,FALSE,FALSE,FALSE,FALSE,,,86A3B869D84AA1CB,2021-10-25 14:56:43+00
EDEN,COUNCIL,Information Bay south of Eden,,,-37.06406,149.8947,BEGA VALLEY,SOUTHERN REGION,1km South of Eden,BOYD ST,0000001,2530,A3,"0000001,2530,A3",,RIGHT,REST AREA,LIGHT VEHICLES ONLY,FALSE,FALSE,FALSE,FALSE,FALSE,FALSE,FALSE,FALSE,BOTH,FALSE,FALSE,FALSE,FALSE,TRUE,FALSE,TRUE,0,FALSE,FALSE,FALSE,FALSE,FALSE,FALSE,FALSE,FALSE,FALSE,NONE,BOTH,B504108EE626435E,
MOONBI,COUNCIL,Moonbi,,,-31.019,151.07001,TAMWORTH,NORTHERN REGION,21.860km North of Tamworth,NEW ENGLAND HIGHWAY,0000009,1014,A1,"0000009,1014,A1",,LEFT,REST AREA,LIGHT VEHICLES ONLY,FALSE,TRUE,FALSE,FALSE,TRUE,TRUE,FALSE,TRUE,BOTH,FALSE,TRUE,FALSE,FALSE,TRUE,TRUE,TRUE,1,FALSE,FALSE,FALSE,FALSE,FALSE,FALSE,FALSE,FALSE,FALSE,NONE,BOTH,D358218F4807B3D0,2021-10-25 14:56:44+00
DORRIGO,COUNCIL,Oak Street,,,-30.3414,152.7005,BELLINGEN,NORTHERN REGION,1.3km West of Dorrigo,WATERFALL WAY,0000076,0120,A1,"0000076,0120,A1",,LEFT,PARKING AREA,LIGHT VEHICLES ONLY,FALSE,FALSE,FALSE,FALSE,FALSE,TRUE,FALSE,FALSE,PRESCRIBED,FALSE,FALSE,FALSE,FALSE,TRUE,FALSE,FALSE,0,FALSE,FALSE,FALSE,FALSE,FALSE,FALSE,FALSE,FALSE,FALSE,NONE,,D33A0014B65F36E1,2021-10-25 14:56:44+00
DORRIGO MOUNTAIN,RMS,Newell Falls,,OPEN,-30.3945,152.74601,BELLINGEN,NORTHERN REGION,20.5km West of Bellingen,WATERFALL WAY,0000076,0060,A1,"0000076,0060,A1",MAIN CARRIAGEWAY,RIGHT,REST AREA,LIGHT VEHICLES ONLY,FALSE,FALSE,FALSE,FALSE,FALSE,TRUE,FALSE,TRUE,BOTH,FALSE,FALSE,FALSE,FALSE,TRUE,FALSE,TRUE,0,FALSE,FALSE,FALSE,FALSE,FALSE,FALSE,FALSE,FALSE,FALSE,NONE,BOTH,A893283292E7D772,2021-10-25 14:56:44+00
TILBA TILBA,RMS,Bobundara Rest Area Tilba N/B,,,-36.32257,150.07167,EUROBODALLA,SOUTHERN REGION,16km South of Narooma,PRINCES HIGHWAY,0000001,2216,A1,"0000001,2216,A1",,RIGHT,REST AREA,BOTH LIGHT AND HEAVY VEHICLES,FALSE,FALSE,FALSE,FALSE,FALSE,TRUE,FALSE,TRUE,BOTH,FALSE,FALSE,FALSE,FALSE,TRUE,FALSE,TRUE,0,FALSE,FALSE,FALSE,FALSE,FALSE,FALSE,FALSE,FALSE,FALSE,NONE,BOTH,D9BCA64F23664B0B,2021-10-25 14:56:44+00
ROBIN HILL,RMS,,,,-33.43441,149.53292,BATHURST REGIONAL,WESTERN REGION,29.7km East of Blayney,MID WESTERN HIGHWAY,0000006,0030,A2,"0000006,0030,A2",,LEFT,REST AREA,BOTH LIGHT AND HEAVY VEHICLES,FALSE,TRUE,FALSE,FALSE,FALSE,TRUE,FALSE,FALSE,BOTH,FALSE,TRUE,FALSE,FALSE,TRUE,FALSE,TRUE,0,FALSE,FALSE,FALSE,FALSE,FALSE,FALSE,FALSE,FALSE,FALSE,NONE,BOTH,7E54E417F7980F83,2021-10-25 14:56:45+00
GRENFELL,RMS,,,,-33.90856,148.26521,WEDDIN,WESTERN REGION,8.3-9.6km East of Grenfell,MID WESTERN HIGHWAY,0000006,0420,A1,"0000006,0420,A1",,RIGHT,REST AREA,HEAVY VEHICLES ONLY,FALSE,TRUE,FALSE,FALSE,FALSE,TRUE,FALSE,TRUE,BOTH,FALSE,TRUE,FALSE,FALSE,TRUE,FALSE,TRUE,0,FALSE,FALSE,FALSE,FALSE,FALSE,FALSE,FALSE,FALSE,FALSE,NONE,BOTH,77BA4EC367DBF59B,2021-10-25 14:56:45+00
ILLABO,COUNCIL,Illabo Rest Area,,,-34.81573,147.73869,JUNEE,SOUTH WEST REGION,17km from Junee and 36km to Cootamundra,OLYMPIC HIGHWAY,0000078,0361,A1,"0000078,0361,A1",,RIGHT,REST AREA,BOTH LIGHT AND HEAVY VEHICLES,FALSE,TRUE,FALSE,FALSE,FALSE,TRUE,FALSE,FALSE,BOTH,TRUE,TRUE,FALSE,FALSE,TRUE,FALSE,TRUE,1,FALSE,FALSE,FALSE,FALSE,FALSE,FALSE,FALSE,FALSE,FALSE,TOWN SUPPLY,BOTH,202F1EEF660068E9,2021-10-25 14:56:43+00
URANQUINTY,COUNCIL,Uranquinty Rest Area,,,-35.1932,147.24572,WAGGA WAGGA,SOUTH WEST REGION,61km from Culcairn and 16km to Wagga Wagga,MORGAN ST,0000078,0160,A1,"0000078,0160,A1",,LEFT,REST AREA,BOTH LIGHT AND HEAVY VEHICLES,FALSE,TRUE,FALSE,TRUE,TRUE,TRUE,FALSE,FALSE,BOTH,TRUE,TRUE,FALSE,FALSE,TRUE,TRUE,TRUE,4,FALSE,FALSE,FALSE,TRUE,FALSE,FALSE,FALSE,FALSE,FALSE,TOWN SUPPLY,BOTH,64F92B3B4A20BCFD,2021-10-25 14:56:43+00
WILSONS VALLEY,NATIONAL PARKS AND WILDLIFE SERVICE,Jindabyne Surge Tank Lookout E/B,,,-36.34213,148.58031,SNOWY MONARO REGIONAL,SOUTHERN REGION,13km North of Jindabyne,KOSCIUSZKO ROAD,0000286,0150,A2,"0000286,0150,A2",,LEFT,REST AREA,LIGHT VEHICLES ONLY,FALSE,FALSE,FALSE,FALSE,FALSE,FALSE,FALSE,FALSE,BOTH,FALSE,FALSE,FALSE,FALSE,TRUE,FALSE,FALSE,0,FALSE,TRUE,FALSE,FALSE,FALSE,FALSE,FALSE,FALSE,FALSE,NONE,BOTH,14453A99DD2CCE2B,2021-10-25 14:56:43+00
OTFORD,RMS,Parking area Otford Pie Shop,,,-34.21162,151.01025,WOLLONGONG,SOUTHERN REGION,4km North of Stanwell Park,LADY WAKEHURST DR,0000393,0010,A1,"0000393,0010,A1",,RIGHT,INFORMAL PARKING AREA,BOTH LIGHT AND HEAVY VEHICLES,FALSE,FALSE,FALSE,FALSE,FALSE,TRUE,FALSE,FALSE,COUNTER,FALSE,FALSE,FALSE,FALSE,TRUE,FALSE,FALSE,0,FALSE,FALSE,FALSE,FALSE,FALSE,FALSE,FALSE,FALSE,FALSE,NONE,BOTH,920D8E326F384F0C,2021-10-25 14:56:43+00
OTFORD,RMS,Parking area Otford,,,-34.21156,151.01042,WOLLONGONG,SOUTHERN REGION,4km North of Stanwell Park,LADY WAKEHURST DR,0000393,0020,A1,"0000393,0020,A1",,RIGHT,INFORMAL PARKING AREA,BOTH LIGHT AND HEAVY VEHICLES,FALSE,FALSE,FALSE,FALSE,FALSE,TRUE,FALSE,FALSE,COUNTER,FALSE,FALSE,FALSE,FALSE,TRUE,FALSE,FALSE,0,FALSE,FALSE,FALSE,FALSE,FALSE,FALSE,FALSE,FALSE,FALSE,NONE,,4E8CFED2A484356D,2021-10-25 14:56:43+00
OTFORD,RMS,Parking area Otford Lookout,,,-34.21072,151.01109,WOLLONGONG,SOUTHERN REGION,4km North of Stanwell Park,LADY WAKEHURST DR,0000393,0020,A1,"0000393,0020,A1",,RIGHT,INFORMAL PARKING AREA,LIGHT VEHICLES ONLY,FALSE,FALSE,FALSE,FALSE,FALSE,FALSE,FALSE,FALSE,COUNTER,FALSE,FALSE,FALSE,FALSE,TRUE,FALSE,FALSE,0,FALSE,TRUE,FALSE,FALSE,FALSE,FALSE,FALSE,FALSE,FALSE,NONE,,89F3885A15EDBCB6,2021-10-25 14:56:43+00
TERMEIL,COUNCIL,Termeil Information Bay,,,-35.48479,150.33916,SHOALHAVEN,SOUTHERN REGION,32km North of Batemans Bay,PRINCES HIGHWAY,0000001,1840,A2,"0000001,1840,A2",,RIGHT,REST AREA,LIGHT VEHICLES ONLY,FALSE,FALSE,FALSE,FALSE,FALSE,FALSE,FALSE,FALSE,BOTH,TRUE,FALSE,FALSE,FALSE,TRUE,FALSE,FALSE,0,FALSE,FALSE,FALSE,FALSE,FALSE,FALSE,FALSE,FALSE,FALSE,NONE,BOTH,A5FFD24F4326D55B,2021-10-25 14:56:43+00
BOMBALA,RMS,south of Bombala Truck Parking,,,-36.90754,149.23947,SNOWY MONARO REGIONAL,SOUTHERN REGION,At Bombala,MAHRATTA ST,0000019,1090,A2,"0000019,1090,A2",,LEFT,PARKING AREA,HEAVY VEHICLES ONLY,FALSE,FALSE,FALSE,FALSE,FALSE,FALSE,FALSE,FALSE,PRESCRIBED,FALSE,FALSE,FALSE,FALSE,TRUE,FALSE,FALSE,0,FALSE,FALSE,FALSE,FALSE,FALSE,FALSE,FALSE,FALSE,FALSE,NONE,BOTH,320FFDC7A173EB07,2021-10-25 14:56:43+00
BOMBALA,RMS,Truck park opp Bombala Historic Engine,,,-36.90654,149.24121,SNOWY MONARO REGIONAL,SOUTHERN REGION,At Bombala,MAHRATTA ST,0000019,1090,A2,"0000019,1090,A2",,RIGHT,PARKING AREA,HEAVY VEHICLES ONLY,FALSE,FALSE,FALSE,FALSE,FALSE,FALSE,FALSE,FALSE,COUNTER,FALSE,FALSE,FALSE,FALSE,TRUE,FALSE,FALSE,0,FALSE,FALSE,FALSE,FALSE,FALSE,FALSE,FALSE,FALSE,FALSE,NONE,,5635643E57687ED9,2021-10-25 14:56:43+00
COOMA,COUNCIL,Information Bay Kosciuszko Park S/B,,,-36.21823,149.13701,SNOWY MONARO REGIONAL,SOUTHERN REGION,3km North of Cooma,MONARO HIGHWAY,0000019,1260,A1,"0000019,1260,A1",,RIGHT,REST AREA,LIGHT VEHICLES ONLY,FALSE,FALSE,FALSE,FALSE,FALSE,FALSE,FALSE,FALSE,BOTH,FALSE,FALSE,FALSE,FALSE,TRUE,FALSE,TRUE,0,FALSE,FALSE,FALSE,FALSE,FALSE,FALSE,FALSE,FALSE,FALSE,NONE,BOTH,62E7EE22D2270E0F,2021-10-25 14:56:43+00
BREDBO,COUNCIL,Bredbo Rest Area (Centennial Park),,,-35.95218,149.14567,SNOWY MONARO REGIONAL,SOUTHERN REGION,At Bredbo,MONARO HIGHWAY,0000019,1300,A2,"0000019,1300,A2",,LEFT,REST AREA,LIGHT VEHICLES ONLY,FALSE,TRUE,FALSE,FALSE,TRUE,TRUE,FALSE,FALSE,BOTH,FALSE,TRUE,FALSE,FALSE,TRUE,TRUE,TRUE,6,FALSE,FALSE,FALSE,FALSE,FALSE,FALSE,FALSE,FALSE,FALSE,TOWN SUPPLY,BOTH,7331DEA6D7839BA6,2021-10-25 14:56:43+00
JINDABYNE,COUNCIL,Jindabyne Information Bay nr Banjo Paterson Inn,,,-36.41565,148.62424,SNOWY MONARO REGIONAL,SOUTHERN REGION,At Jindabyne,KOSCIUSZKO ROAD,0000286,0100,B1,"0000286,0100,B1",,LEFT,REST AREA,LIGHT VEHICLES ONLY,FALSE,FALSE,FALSE,FALSE,FALSE,TRUE,FALSE,FALSE,PRESCRIBED,TRUE,FALSE,FALSE,FALSE,TRUE,FALSE,FALSE,0,FALSE,FALSE,FALSE,FALSE,FALSE,FALSE,FALSE,FALSE,FALSE,NONE,BOTH,8B24B7CCDACF6D54,2021-10-25 14:56:43+00
DORRIGO MOUNTAIN,RMS,Mountain Top Picnic Area,,OPEN,-30.37503,152.72581,BELLINGEN,NORTHERN REGION,24.5km west of Bellingen,WATERFALL WAY,0000076,0060,A1,"0000076,0060,A1",MAIN CARRIAGEWAY,RIGHT,PARKING AREA,BOTH LIGHT AND HEAVY VEHICLES,FALSE,FALSE,FALSE,FALSE,FALSE,TRUE,FALSE,FALSE,COUNTER,FALSE,FALSE,FALSE,FALSE,TRUE,FALSE,FALSE,FALSE,FALSE,FALSE,FALSE,FALSE,FALSE,FALSE,FALSE,FALSE,TRUE,NONE,,ABCDE7FF7139C35B,2021-10-25 14:56:43+00
DORRIGO MOUNTAIN,RMS,Dorrigo Mountain Top,,OPEN,-30.37462,152.72531,BELLINGEN,NORTHERN REGION,24.7km west of Bellingen,WATERFALL WAY,0000076,0060,A1,"0000076,0060,A1",PHYSICAL SEPARATION,RIGHT,REST AREA,LIGHT VEHICLES ONLY,FALSE,FALSE,FALSE,FALSE,FALSE,TRUE,FALSE,FALSE,COUNTER,TRUE,FALSE,FALSE,FALSE,TRUE,FALSE,TRUE,2,FALSE,FALSE,FALSE,FALSE,FALSE,FALSE,FALSE,FALSE,FALSE,NONE,BOTH,E46B1D895B2569BB,2021-10-25 14:56:43+00
BOGGABILLA,RMS,,,,-28.85202,150.21904,MOREE PLAINS,WESTERN REGION,,NEWELL HIGHWAY,0000017,3370,A1,"0000017,3370,A1",,LEFT,REST AREA,BOTH LIGHT AND HEAVY VEHICLES,FALSE,FALSE,FALSE,FALSE,FALSE,TRUE,FALSE,FALSE,BOTH,TRUE,FALSE,FALSE,FALSE,FALSE,FALSE,FALSE,4,FALSE,FALSE,FALSE,FALSE,FALSE,FALSE,FALSE,FALSE,FALSE,RAINWATER TANK,BOTH,563C5913C2AFB8AC,2021-10-25 14:56:43+00
BLAXLANDS RIDGE,RMS,,,,-33.46153,150.81332,HAWKESBURY,SYDNEY PARKLAND ZONE,12.4km from Kurmond turn off,THE PUTTY RD,0000503,1070,A3,"0000503,1070,A3",,LEFT,INSPECTION BAY,HEAVY VEHICLES ONLY,FALSE,FALSE,FALSE,FALSE,FALSE,FALSE,FALSE,FALSE,BOTH,FALSE,FALSE,FALSE,FALSE,TRUE,FALSE,FALSE,0,FALSE,FALSE,FALSE,FALSE,FALSE,FALSE,FALSE,FALSE,FALSE,NONE,BOTH,109F1AF7BDBFCD7F,2021-10-25 14:56:43+00
GRONG GRONG,RMS,Firetail Rest Area,N,OPEN,-34.69395,146.78883,NARRANDERA,SOUTH WEST REGION,27km from Narrandera and 109km to West Wyalong,NEWELL HIGHWAY,0000017,2332,A1,"0000017,2332,A1",PHYSICAL SEPARATION,LEFT,REST AREA,BOTH LIGHT AND HEAVY VEHICLES,FALSE,TRUE,FALSE,FALSE,FALSE,TRUE,FALSE,TRUE,BOTH,TRUE,TRUE,FALSE,FALSE,TRUE,FALSE,TRUE,2,FALSE,FALSE,FALSE,FALSE,FALSE,FALSE,FALSE,FALSE,FALSE,TOWN SUPPLY,BOTH,1279B5B035AB854E,2021-10-25 14:56:43+00
BOOROWA,COUNCIL,BOOROWA DRIVER REVIVER SITE,,,-34.43873,148.71591,HILLTOPS,SOUTH WEST REGION,,MARSDEN ST,0000056,0060,A1,"0000056,0060,A1",,LEFT,REST AREA,LIGHT VEHICLES ONLY,FALSE,FALSE,FALSE,FALSE,FALSE,TRUE,FALSE,FALSE,BOTH,TRUE,FALSE,FALSE,FALSE,TRUE,TRUE,TRUE,7,TRUE,FALSE,FALSE,FALSE,TRUE,FALSE,FALSE,FALSE,FALSE,TOWN SUPPLY,BOTH,4E1F6CBFDFCCBC2F,2021-10-25 14:56:43+00
COLO HEIGHTS,RMS,,,,-33.22472,150.66438,HAWKESBURY,SYDNEY PARKLAND ZONE,54.1km from Kurmond Rd turn off,THE PUTTY RD,0000503,1100,A2,"0000503,1100,A2",,LEFT,PARKING AREA,BOTH LIGHT AND HEAVY VEHICLES,FALSE,FALSE,FALSE,FALSE,FALSE,FALSE,FALSE,FALSE,BOTH,FALSE,FALSE,FALSE,FALSE,TRUE,FALSE,FALSE,0,FALSE,FALSE,FALSE,FALSE,FALSE,FALSE,FALSE,FALSE,FALSE,NONE,BOTH,51818F7C5BA198CF,2021-10-25 14:56:43+00
BILPIN,RMS,,,,-33.51225,150.5726,HAWKESBURY,SYDNEY PARKLAND ZONE,54.1km from Lithgow,BELLS LINE OF RD,0000184,0461,A1,"0000184,0461,A1",,RIGHT,PARKING AREA,BOTH LIGHT AND HEAVY VEHICLES,FALSE,FALSE,FALSE,FALSE,FALSE,FALSE,FALSE,FALSE,BOTH,FALSE,FALSE,FALSE,FALSE,TRUE,FALSE,FALSE,0,FALSE,FALSE,FALSE,FALSE,FALSE,FALSE,FALSE,FALSE,FALSE,NONE,BOTH,A3CBE4285AD52B56,2021-10-25 14:56:43+00
MULLENGANDRA,RMS,Borella VC Rest Area,,OPEN,-35.91557,147.10223,GREATER HUME,SOUTH WEST REGION,28km from Albury and 146km to Gundagai,HUME HIGHWAY,0000002,2195,C1,"0000002,2195,C1",,RIGHT,REST AREA,BOTH LIGHT AND HEAVY VEHICLES,FALSE,FALSE,FALSE,TRUE,FALSE,TRUE,FALSE,TRUE,COUNTER,TRUE,FALSE,FALSE,FALSE,FALSE,FALSE,TRUE,5,FALSE,FALSE,FALSE,TRUE,FALSE,FALSE,FALSE,FALSE,FALSE,BORE WATER,,1D92D3DCA5D64864,2021-10-25 14:56:43+00
WILBERFORCE,RMS,,,,-33.53766,150.83552,HAWKESBURY,SYDNEY PARKLAND ZONE,1.7km from Kurmond turn off,THE PUTTY RD,0000503,1020,A1,"0000503,1020,A1",,LEFT,PARKING AREA,HEAVY VEHICLES ONLY,FALSE,FALSE,FALSE,FALSE,FALSE,FALSE,FALSE,FALSE,BOTH,FALSE,FALSE,FALSE,FALSE,TRUE,FALSE,FALSE,0,FALSE,FALSE,FALSE,FALSE,FALSE,FALSE,FALSE,FALSE,FALSE,NONE,BOTH,91E5C0E65F3E2D4C,2021-10-25 14:56:43+00
HOLBROOK,RMS,MILTON REST AREA,,,-35.6818,147.36277,GREATER HUME,SOUTH WEST REGION,109km from Gundagai and  71km to Albury,HUME HIGHWAY,0000002,2095,C1,"0000002,2095,C1",,RIGHT,REST AREA,BOTH LIGHT AND HEAVY VEHICLES,FALSE,FALSE,FALSE,FALSE,FALSE,TRUE,FALSE,FALSE,COUNTER,TRUE,FALSE,FALSE,FALSE,TRUE,FALSE,TRUE,5,FALSE,FALSE,FALSE,FALSE,FALSE,FALSE,FALSE,FALSE,FALSE,WATER TRUCK,,5C66DA5D7F9EB318,2021-10-25 14:56:43+00
WOOMARGAMA,RMS,Blue Metal Rest Area,,,-35.84447,147.19783,GREATER HUME,SOUTH WEST REGION,134km from Gundagai and  46km to Albury,HUME HIGHWAY,0000002,2185,B3,"0000002,2185,B3",,LEFT,REST AREA,BOTH LIGHT AND HEAVY VEHICLES,FALSE,TRUE,FALSE,TRUE,FALSE,TRUE,FALSE,TRUE,PRESCRIBED,TRUE,TRUE,FALSE,FALSE,TRUE,FALSE,TRUE,5,FALSE,FALSE,FALSE,TRUE,FALSE,FALSE,FALSE,FALSE,FALSE,BORE WATER,,2CA3FE40C4F503B2,2021-10-25 14:56:43+00
WOOMARGAMA,RMS,Four Mile Creek Rest Area,,,-35.83944,147.2031,GREATER HUME,SOUTH WEST REGION,134km from Gundagai and  46km to Albury,HUME HIGHWAY,0000002,2185,C3,"0000002,2185,C3",,RIGHT,REST AREA,BOTH LIGHT AND HEAVY VEHICLES,FALSE,FALSE,FALSE,FALSE,FALSE,TRUE,FALSE,FALSE,COUNTER,TRUE,FALSE,FALSE,FALSE,TRUE,FALSE,TRUE,5,FALSE,FALSE,FALSE,FALSE,FALSE,FALSE,FALSE,FALSE,FALSE,RAINWATER TANK,,5504E34683F083EB,2021-10-25 14:56:43+00
CANOWINDRA,COUNCIL,Morris Park,,OPEN,-33.56017,148.66763,CABONNE,WESTERN REGION,2km north of Canowindra Town Centre,RODD ST,0000310,0106,A1,"0000310,0106,A1",,LEFT,REST AREA,BOTH LIGHT AND HEAVY VEHICLES,FALSE,TRUE,FALSE,FALSE,TRUE,TRUE,FALSE,TRUE,BOTH,TRUE,TRUE,FALSE,FALSE,TRUE,TRUE,TRUE,4,FALSE,FALSE,FALSE,FALSE,TRUE,FALSE,FALSE,FALSE,FALSE,TOWN SUPPLY,BOTH,8DCAB9511D59B02E,2021-10-25 14:56:43+00
COFFS HARBOUR,PRIVATE,Coffs South Service Centre,,OPEN,-30.32068,153.08658,COFFS HARBOUR,NORTHERN REGION,0 km from Stadium Drive Coffs Harbour,PACIFIC HIGHWAY,0000010,2490,C1,"0000010,2490,C1",PHYSICAL SEPARATION,RIGHT,HIGHWAY SERVICE CENTRE,LIGHT VEHICLES ONLY,FALSE,FALSE,FALSE,FALSE,FALSE,TRUE,FALSE,TRUE,COUNTER,TRUE,FALSE,FALSE,FALSE,FALSE,FALSE,TRUE,2,TRUE,FALSE,FALSE,FALSE,FALSE,TRUE,TRUE,FALSE,FALSE,,,95C860D002BC5D59,2021-10-25 14:56:43+00
SEBASTOPOL,RMS,Parking Area near Keiths Rd,Y,OPEN,-34.57127,147.51072,JUNEE,SOUTH WEST REGION,72km from Wagga Wagga and 15km to Temora,GOLDFIELDS WAY,0000057,0042,A1,"0000057,0042,A1",PHYSICAL SEPARATION,LEFT,PARKING AREA,BOTH LIGHT AND HEAVY VEHICLES,FALSE,TRUE,FALSE,FALSE,FALSE,TRUE,FALSE,FALSE,PRESCRIBED,FALSE,TRUE,FALSE,FALSE,TRUE,FALSE,FALSE,0,FALSE,FALSE,FALSE,FALSE,FALSE,FALSE,FALSE,FALSE,FALSE,NONE,BOTH,8FCA9F17E8A82BA3,2021-10-25 14:56:43+00
GILLENBAH,RMS,Gillenbah Rest Area,N,OPEN,-34.81475,146.47918,NARRANDERA,SOUTH WEST REGION,98km from Jerilderie and 10km to Narrandera,NEWELL HIGHWAY,0000017,2200,A1,"0000017,2200,A1",PHYSICAL SEPARATION,RIGHT,REST AREA,BOTH LIGHT AND HEAVY VEHICLES,FALSE,TRUE,FALSE,FALSE,FALSE,TRUE,FALSE,TRUE,BOTH,TRUE,TRUE,FALSE,FALSE,TRUE,FALSE,TRUE,2,FALSE,FALSE,FALSE,FALSE,FALSE,FALSE,FALSE,FALSE,FALSE,WATER TRUCK,BOTH,682720883E8AF9CD,2021-10-25 14:56:43+00
WEST BALLINA,PRIVATE,Ballina Service Centre,,OPEN,-28.8611,153.51603,BALLINA,NORTHERN REGION,,Pacific Highway,0000010,3135,B1,"0000010,3135,B1",PHYSICAL SEPARATION,LEFT,HIGHWAY SERVICE CENTRE,BOTH LIGHT AND HEAVY VEHICLES,FALSE,FALSE,FALSE,FALSE,FALSE,TRUE,FALSE,TRUE,PRESCRIBED,TRUE,FALSE,FALSE,FALSE,FALSE,FALSE,TRUE,FALSE,TRUE,FALSE,FALSE,FALSE,FALSE,FALSE,FALSE,FALSE,FALSE,,,5C94CC0200B5D8B4,2021-10-25 14:56:43+00
ANABRANCH SOUTH,RMS,Bunnerungee Rest Area,,OPEN,-33.58071,141.75593,WENTWORTH,SOUTH WEST REGION,67km from Wentworth and  200km to Broken Hill,SILVER CITY HIGHWAY,0000022,0120,A1,"0000022,0120,A1",PHYSICAL SEPARATION,RIGHT,REST AREA,LIGHT VEHICLES ONLY,FALSE,FALSE,FALSE,FALSE,FALSE,TRUE,FALSE,FALSE,BOTH,FALSE,FALSE,FALSE,FALSE,TRUE,FALSE,FALSE,1,FALSE,FALSE,FALSE,FALSE,FALSE,FALSE,FALSE,FALSE,FALSE,NONE,BOTH,E9043465F73C9F49,2021-10-25 14:56:43+00
GIDGINBUNG,RMS,Schmidts Lane,,,-34.33438,147.47729,TEMORA,SOUTH WEST REGION,14km from Temora and  55km to West Wyalong,GOLDFIELDS WAY,0000057,0110,A1,"0000057,0110,A1",,RIGHT,PARKING AREA,BOTH LIGHT AND HEAVY VEHICLES,FALSE,FALSE,FALSE,FALSE,FALSE,TRUE,FALSE,FALSE,BOTH,FALSE,FALSE,FALSE,FALSE,TRUE,FALSE,FALSE,0,FALSE,FALSE,FALSE,FALSE,FALSE,FALSE,FALSE,FALSE,FALSE,NONE,BOTH,C2A5E0F2A02CF661,2021-10-25 14:56:43+00
SPRINGDALE,COUNCIL,Spingdale,,,-34.46804,147.72626,TEMORA,SOUTH WEST REGION,62.5km from Harden and 19.6km to Temora,BURLEY GRIFFIN WAY,0000084,0190,A1,"0000084,0190,A1",,RIGHT,REST AREA,BOTH LIGHT AND HEAVY VEHICLES,FALSE,FALSE,FALSE,TRUE,TRUE,TRUE,FALSE,FALSE,BOTH,TRUE,FALSE,FALSE,FALSE,TRUE,FALSE,TRUE,4,FALSE,FALSE,FALSE,TRUE,FALSE,FALSE,FALSE,FALSE,FALSE,TOWN SUPPLY,BOTH,4CAAADC08A488D03,2021-10-25 14:56:43+00
GIDGINBUNG,RMS,Schmidts Lane,,,-34.33438,147.47729,TEMORA,SOUTH WEST REGION,14km from Temora and  55km to West Wyalong,GOLDFIELDS WAY,0000057,0110,A1,"0000057,0110,A1",,LEFT,PARKING AREA,BOTH LIGHT AND HEAVY VEHICLES,FALSE,FALSE,FALSE,FALSE,FALSE,TRUE,FALSE,FALSE,BOTH,FALSE,FALSE,FALSE,FALSE,TRUE,FALSE,FALSE,0,FALSE,FALSE,FALSE,FALSE,FALSE,FALSE,FALSE,FALSE,FALSE,NONE,BOTH,C2A5E0F2AF75534D,2021-10-25 14:56:43+00
DARLINGTON POINT,RMS,Birdcage Rest Area,,OPEN,-34.52367,145.70091,MURRUMBIDGEE,SOUTH WEST REGION,89km from Narrandera and  84km to Hay,STURT HIGHWAY,0000014,0310,A1,"0000014,0310,A1",PHYSICAL SEPARATION,LEFT,REST AREA,BOTH LIGHT AND HEAVY VEHICLES,FALSE,TRUE,FALSE,FALSE,FALSE,TRUE,FALSE,TRUE,BOTH,FALSE,TRUE,FALSE,FALSE,TRUE,FALSE,TRUE,2,FALSE,FALSE,FALSE,FALSE,FALSE,FALSE,FALSE,FALSE,FALSE,WATER TRUCK,BOTH,C41015F9E7F9E811,2021-10-25 14:56:43+00
ARDLETHAN,RMS,Ardlethan Rest Area-Southbound,Y,OPEN,-34.44767,146.83938,NARRANDERA,SOUTH WEST REGION,55km from Narrandera and  81km to West Wyalong,NEWELL HIGHWAY,0000017,2350,A1,"0000017,2350,A1",MAIN CARRIAGEWAY,RIGHT,REST AREA,HEAVY VEHICLES ONLY,FALSE,FALSE,FALSE,FALSE,FALSE,TRUE,FALSE,TRUE,COUNTER,FALSE,FALSE,FALSE,FALSE,TRUE,FALSE,TRUE,2,FALSE,FALSE,FALSE,FALSE,FALSE,FALSE,FALSE,FALSE,FALSE,SOURCE UNKNOWN,,44FC176B3CC5A8EA,2021-10-25 14:56:43+00
MANTON,RMS,Yass Valley Way,Y,,-34.83729,149.01338,YASS VALLEY,SOUTH WEST REGION,71km from Goulburn and 12km to Yass,HUME HIGHWAY,0000002,1402,B1,"0000002,1402,B1",PHYSICAL SEPARATION,LEFT,REST AREA,LIGHT VEHICLES ONLY,FALSE,TRUE,FALSE,FALSE,FALSE,TRUE,FALSE,FALSE,BOTH,FALSE,TRUE,FALSE,FALSE,TRUE,FALSE,TRUE,0,FALSE,FALSE,FALSE,FALSE,FALSE,FALSE,FALSE,FALSE,FALSE,WATER TRUCK,BOTH,A7C65C780021A982,2021-10-25 14:56:44+00
YARRANGOBILLY,NATIONAL PARKS AND WILDLIFE SERVICE,Yarrangobilly River Rest Area,,,-35.65233,148.46303,SNOWY VALLEYS,SOUTH WEST REGION,118km from Cooma and  63km to Tumut,SNOWY MOUNTAINS HIGHWAY,0000004,0450,A2,"0000004,0450,A2",,LEFT,REST AREA,LIGHT VEHICLES ONLY,FALSE,FALSE,FALSE,FALSE,FALSE,TRUE,FALSE,FALSE,BOTH,FALSE,FALSE,FALSE,FALSE,TRUE,FALSE,TRUE,2,FALSE,FALSE,FALSE,FALSE,FALSE,FALSE,FALSE,FALSE,FALSE,NONE,BOTH,FBDB33A8030A6335,2021-10-25 14:56:44+00
DENILIQUIN,OTHER,Deni Rest Area,,,-35.52487,144.97775,EDWARD RIVER,SOUTH WEST REGION,1km from Deniliquin and 121km to Hay,DAVIDSON ST,0000021,0111,A1,"0000021,0111,A1",,RIGHT,REST AREA,BOTH LIGHT AND HEAVY VEHICLES,FALSE,TRUE,FALSE,FALSE,FALSE,TRUE,FALSE,FALSE,COUNTER,TRUE,TRUE,FALSE,FALSE,TRUE,TRUE,TRUE,2,FALSE,FALSE,FALSE,FALSE,FALSE,FALSE,FALSE,FALSE,FALSE,NONE,BOTH,C6E71D25058E752B,2021-10-25 14:56:44+00
DENILIQUIN,RMS,Deniliquin Information Bay,,,-35.55035,144.95769,EDWARD RIVER,SOUTH WEST REGION,72km from Echuca(VIC) and 4km to Deniliquin,OCHTERTYRE ST,0000021,0077,A1,"0000021,0077,A1",,LEFT,REST AREA,LIGHT VEHICLES ONLY,FALSE,TRUE,FALSE,FALSE,FALSE,TRUE,FALSE,FALSE,BOTH,FALSE,TRUE,FALSE,FALSE,TRUE,FALSE,FALSE,0,FALSE,FALSE,FALSE,FALSE,FALSE,FALSE,FALSE,FALSE,FALSE,NONE,BOTH,168D4B0FBA16FC0A,2021-10-25 14:56:44+00
MATHOURA,OTHER,Long Paddock Visitors Site,,,-35.93408,144.89815,MURRAY RIVER,SOUTH WEST REGION,27km from Echuca (VIC) and  49km to Deniliquin,COBB HIGHWAY,0000021,0040,A1,"0000021,0040,A1",,RIGHT,PARKING AREA,LIGHT VEHICLES ONLY,FALSE,FALSE,FALSE,FALSE,FALSE,FALSE,FALSE,FALSE,BOTH,FALSE,FALSE,FALSE,FALSE,TRUE,FALSE,FALSE,0,FALSE,FALSE,FALSE,FALSE,FALSE,FALSE,FALSE,FALSE,FALSE,NONE,BOTH,8821F36E4D7FBE94,2021-10-25 14:56:44+00
MATHOURA,COUNCIL,Mathoura Rest Area,,,-35.81192,144.90219,MURRAY RIVER,SOUTH WEST REGION,41km from Echuca (VIC) and  35km to Deniliquin,MOAMA ST,0000021,0050,A1,"0000021,0050,A1",,LEFT,REST AREA,LIGHT VEHICLES ONLY,FALSE,TRUE,FALSE,TRUE,FALSE,TRUE,FALSE,FALSE,BOTH,TRUE,TRUE,FALSE,FALSE,TRUE,TRUE,TRUE,2,FALSE,FALSE,FALSE,TRUE,FALSE,FALSE,FALSE,FALSE,FALSE,TOWN SUPPLY,BOTH,718C87EC25C11574,2021-10-25 14:56:44+00
MOLONG,OTHER,,,,-33.09907,148.87209,CABONNE,WESTERN REGION,34km from Orange,MOLONG RD,0000007,0335,A1,"0000007,0335,A1",,RIGHT,REST AREA,BOTH LIGHT AND HEAVY VEHICLES,FALSE,TRUE,FALSE,FALSE,FALSE,TRUE,FALSE,FALSE,BOTH,FALSE,TRUE,FALSE,FALSE,TRUE,FALSE,TRUE,4,FALSE,FALSE,FALSE,FALSE,FALSE,FALSE,FALSE,FALSE,FALSE,TOWN SUPPLY,BOTH,50C3F5B7111534B5,2021-10-25 14:56:44+00
BOMBALA,COUNCIL,Bombala Rest Area S/B,,,-36.90849,149.23914,SNOWY MONARO REGIONAL,SOUTHERN REGION,At Bombala,MAHRATTA ST,0000019,1090,A2,"0000019,1090,A2",,RIGHT,REST AREA,LIGHT VEHICLES ONLY,FALSE,FALSE,FALSE,FALSE,TRUE,TRUE,FALSE,FALSE,BOTH,FALSE,FALSE,FALSE,FALSE,TRUE,FALSE,TRUE,4,FALSE,FALSE,FALSE,FALSE,FALSE,FALSE,FALSE,FALSE,FALSE,NONE,BOTH,FF0E81F30C9C4A53,2021-10-25 14:56:44+00
NIMMITABEL,RMS,Truck Parking near Lake Williams S/B,,,-36.51496,149.28275,SNOWY MONARO REGIONAL,SOUTHERN REGION,At Nimmitabel,BOMBALA ST,0000019,1170,A1,"0000019,1170,A1",,LEFT,PARKING AREA,HEAVY VEHICLES ONLY,FALSE,FALSE,FALSE,FALSE,FALSE,FALSE,FALSE,FALSE,PRESCRIBED,FALSE,FALSE,FALSE,FALSE,TRUE,FALSE,FALSE,0,FALSE,FALSE,FALSE,FALSE,FALSE,FALSE,FALSE,FALSE,FALSE,NONE,BOTH,08D3F17BC2624B3E,2021-10-25 14:56:44+00
NIMMITABEL,RMS,Truck Parking near Lake Williams N/B,,,-36.51493,149.28253,SNOWY MONARO REGIONAL,SOUTHERN REGION,At Nimmitabel,BOMBALA ST,0000019,1170,A1,"0000019,1170,A1",,RIGHT,PARKING AREA,HEAVY VEHICLES ONLY,FALSE,FALSE,FALSE,FALSE,FALSE,FALSE,FALSE,FALSE,COUNTER,FALSE,FALSE,FALSE,FALSE,TRUE,FALSE,FALSE,0,FALSE,FALSE,FALSE,FALSE,FALSE,FALSE,FALSE,FALSE,FALSE,NONE,,1C1F321C7092B64A,2021-10-25 14:56:44+00
QUAAMA,RMS,Quaama Rest Area N/B,N,,-36.47558,149.86311,BEGA VALLEY,SOUTHERN REGION,29km North of Bega,PRINCES HIGHWAY,0000001,2265,A1,"0000001,2265,A1",,RIGHT,REST AREA,BOTH LIGHT AND HEAVY VEHICLES,FALSE,FALSE,FALSE,FALSE,FALSE,TRUE,FALSE,TRUE,COUNTER,TRUE,FALSE,FALSE,FALSE,TRUE,FALSE,TRUE,0,FALSE,FALSE,FALSE,FALSE,FALSE,FALSE,FALSE,FALSE,FALSE,RAINWATER TANK,,A9B1E2B054DE0A1F,2021-10-25 14:56:44+00
TULLARWALLA,RMS,Jerrawangala Rest Area S/B,,,-35.12298,150.47767,SHOALHAVEN,SOUTHERN REGION,37km South of Nowra,PRINCES HIGHWAY,0000001,1670,A2,"0000001,1670,A2",,LEFT,REST AREA,BOTH LIGHT AND HEAVY VEHICLES,FALSE,FALSE,FALSE,FALSE,FALSE,TRUE,FALSE,FALSE,PRESCRIBED,FALSE,FALSE,FALSE,FALSE,TRUE,FALSE,TRUE,2,FALSE,FALSE,FALSE,FALSE,FALSE,FALSE,FALSE,FALSE,FALSE,NONE,BOTH,E9AABC6CFD912B07,2021-10-25 14:56:44+00
BIMBIMBIE,RMS,Rest Area Broulee Rd N/B,,,-35.84486,150.1309,EUROBODALLA,SOUTHERN REGION,17km South of Batemans Bay,PRINCES HIGHWAY,0000001,2000,A2,"0000001,2000,A2",,RIGHT,REST AREA,BOTH LIGHT AND HEAVY VEHICLES,FALSE,FALSE,FALSE,FALSE,FALSE,TRUE,FALSE,FALSE,COUNTER,FALSE,FALSE,FALSE,FALSE,TRUE,FALSE,TRUE,2,FALSE,FALSE,FALSE,FALSE,FALSE,FALSE,FALSE,FALSE,FALSE,NONE,BOTH,AA762B7F38F04CF4,2021-10-25 14:56:44+00
ARRAWARRA,RMS,Arrawarra,,OPEN,-30.05999,153.18505,COFFS HARBOUR,NORTHERN REGION,33.0km north of Coffs Harbour,Pacific Highway,0000010,2625,U1,"0000010,2625,U1",PHYSICAL SEPARATION,RIGHT,REST AREA,BOTH LIGHT AND HEAVY VEHICLES,FALSE,TRUE,FALSE,FALSE,FALSE,TRUE,FALSE,TRUE,BOTH,TRUE,TRUE,TRUE,FALSE,TRUE,FALSE,TRUE,6,TRUE,FALSE,FALSE,FALSE,FALSE,FALSE,FALSE,FALSE,FALSE,TOWN SUPPLY,BOTH,574F2B6B7B21B6EF,2021-10-25 14:56:44+00
BREWARRINA,RMS,,,,-29.94317,146.7039,BREWARRINA,WESTERN REGION,15.75km west of Brewarrina,KAMILAROI HIGHWAY,0000029,0730,A2,"0000029,0730,A2",,RIGHT,INFORMAL PARKING AREA,BOTH LIGHT AND HEAVY VEHICLES,FALSE,FALSE,FALSE,FALSE,FALSE,FALSE,FALSE,FALSE,COUNTER,FALSE,FALSE,FALSE,FALSE,FALSE,FALSE,FALSE,0,FALSE,FALSE,FALSE,FALSE,FALSE,FALSE,FALSE,FALSE,FALSE,,,049D7A4EAF5838B5,2021-10-25 14:56:44+00
BERREMANGRA,RMS,Steam Engine Hill,N,OPEN,-34.81593,148.43515,HILLTOPS,SOUTH WEST REGION,52km from Yass and 50km to Gundagai,HUME HIGHWAY,0000002,1732,C2,"0000002,1732,C2",MAIN CARRIAGEWAY,LEFT,PARKING AREA,HEAVY VEHICLES ONLY,FALSE,FALSE,FALSE,FALSE,FALSE,TRUE,FALSE,TRUE,COUNTER,FALSE,FALSE,FALSE,FALSE,TRUE,FALSE,FALSE,0,FALSE,FALSE,FALSE,FALSE,FALSE,FALSE,FALSE,FALSE,FALSE,NONE,,A6E60031446A4D54,2021-10-25 14:56:44+00
MANTON,RMS,Reardons Road,N,,-34.83503,149.02306,YASS VALLEY,SOUTH WEST REGION,70km from Goulburn and 13km to Yass,HUME HIGHWAY,0000002,1402,C1,"0000002,1402,C1",MAIN CARRIAGEWAY,LEFT,PARKING AREA,BOTH LIGHT AND HEAVY VEHICLES,FALSE,FALSE,FALSE,FALSE,FALSE,TRUE,FALSE,FALSE,COUNTER,FALSE,FALSE,FALSE,FALSE,TRUE,FALSE,FALSE,0,FALSE,FALSE,FALSE,FALSE,FALSE,FALSE,FALSE,FALSE,FALSE,NONE,BOTH,7B3514C388E8163C,2021-10-25 14:56:44+00
CATARACT,RMS,Appin Rd EB Truck Parking Facility,,,-34.25499,150.86906,WOLLONGONG,SOUTHERN REGION,10km East of Appin,APPIN RD,0000177,0045,A2,"0000177,0045,A2",,RIGHT,REST AREA,BOTH LIGHT AND HEAVY VEHICLES,FALSE,TRUE,FALSE,FALSE,FALSE,TRUE,FALSE,TRUE,COUNTER,TRUE,TRUE,FALSE,FALSE,TRUE,FALSE,TRUE,2,FALSE,FALSE,FALSE,FALSE,FALSE,FALSE,FALSE,FALSE,FALSE,RAINWATER TANK,,EAC43ADFC8DC067C,2021-10-25 14:56:44+00
MOUNT VICTORIA,COUNCIL,Browntown Oval,,,-33.5994,150.26443,BLUE MOUNTAINS,SYDNEY PARKLAND ZONE,24km from Lithgow,GREAT WESTERN HWY,0000005,1521,A1,"0000005,1521,A1",,LEFT,REST AREA,BOTH LIGHT AND HEAVY VEHICLES,FALSE,FALSE,FALSE,FALSE,FALSE,TRUE,FALSE,FALSE,BOTH,FALSE,FALSE,FALSE,FALSE,TRUE,FALSE,FALSE,0,FALSE,FALSE,FALSE,FALSE,FALSE,FALSE,FALSE,FALSE,FALSE,NONE,BOTH,7DBDD27E777FD144,2021-10-25 14:56:44+00
SPRINGWOOD,COUNCIL,Buttenshaw Park Faulconbridge,,,-33.69732,150.55195,BLUE MOUNTAINS,SYDNEY PARKLAND ZONE,69.1km from Lithgow,GREAT WESTERN HWY,0000005,1281,C1,"0000005,1281,C1",,RIGHT,REST AREA,BOTH LIGHT AND HEAVY VEHICLES,FALSE,FALSE,FALSE,FALSE,FALSE,TRUE,FALSE,FALSE,COUNTER,FALSE,FALSE,FALSE,FALSE,TRUE,FALSE,FALSE,0,FALSE,FALSE,FALSE,FALSE,FALSE,FALSE,FALSE,FALSE,FALSE,NONE,,B3F2499E496898A1,2021-10-25 14:56:44+00
BLACKHEATH,RMS,,,,-33.62012,150.27511,BLUE MOUNTAINS,SYDNEY PARKLAND ZONE,26km from Lithgow,GREAT WESTERN HWY,0000005,1505,A1,"0000005,1505,A1",,LEFT,PARKING AREA,BOTH LIGHT AND HEAVY VEHICLES,FALSE,FALSE,FALSE,FALSE,FALSE,FALSE,FALSE,FALSE,BOTH,FALSE,FALSE,FALSE,FALSE,TRUE,FALSE,FALSE,0,FALSE,FALSE,FALSE,FALSE,FALSE,FALSE,FALSE,FALSE,FALSE,NONE,BOTH,567DFB8AFF7F21D5,2021-10-25 14:56:44+00
BERAMBING,COUNCIL,Berambing Picnic Area,,,-33.53725,150.43901,BLUE MOUNTAINS,SYDNEY PARKLAND ZONE,39km from Lithgow,BELLS LINE OF RD,0000184,0540,A1,"0000184,0540,A1",,RIGHT,REST AREA,BOTH LIGHT AND HEAVY VEHICLES,FALSE,FALSE,FALSE,FALSE,FALSE,FALSE,TRUE,FALSE,BOTH,FALSE,FALSE,FALSE,FALSE,TRUE,FALSE,TRUE,1,FALSE,FALSE,FALSE,FALSE,FALSE,FALSE,FALSE,FALSE,FALSE,NONE,BOTH,6689D5BC197C0BF2,2021-10-25 14:56:44+00
COFFS HARBOUR,PRIVATE,Big Banana,,OPEN,-30.27398,153.13301,COFFS HARBOUR,NORTHERN REGION,,PACIFIC HIGHWAY,0000010,2565,B1,"0000010,2565,B1",PHYSICAL SEPARATION,LEFT,REST AREA,LIGHT VEHICLES ONLY,FALSE,FALSE,FALSE,FALSE,FALSE,TRUE,FALSE,FALSE,BOTH,FALSE,FALSE,TRUE,FALSE,FALSE,FALSE,TRUE,1,FALSE,TRUE,FALSE,FALSE,FALSE,TRUE,FALSE,FALSE,FALSE,,BOTH,0E56AF56892FFBE7,2021-10-25 14:56:44+00
GEEHI,NATIONAL PARKS AND WILDLIFE SERVICE,Scammel Spur Lookout,,OPEN,-36.32241,148.20001,SNOWY VALLEYS,SOUTH WEST REGION,19km south of Khancoban,ALPINE WAY,0000677,0080,A4,"0000677,0080,A4",PHYSICAL SEPARATION,LEFT,REST AREA,LIGHT VEHICLES ONLY,FALSE,TRUE,FALSE,FALSE,FALSE,FALSE,FALSE,TRUE,PRESCRIBED,FALSE,TRUE,FALSE,FALSE,FALSE,FALSE,TRUE,FALSE,FALSE,TRUE,FALSE,FALSE,FALSE,FALSE,FALSE,FALSE,TRUE,SOURCE UNKNOWN,,6E88AA03B9AFFB6C,2021-10-25 14:56:44+00
GOONOO GOONOO,RMS,Goonoo Goonoo,,OPEN,-31.2972,150.90183,TAMWORTH,NORTHERN REGION,132.3km North of Muswellbrook,NEW ENGLAND HIGHWAY,0000009,0860,A1,"0000009,0860,A1",PHYSICAL SEPARATION,RIGHT,REST AREA,HEAVY VEHICLES ONLY,FALSE,TRUE,FALSE,FALSE,FALSE,TRUE,FALSE,FALSE,BOTH,FALSE,TRUE,FALSE,FALSE,TRUE,FALSE,TRUE,1,FALSE,FALSE,FALSE,FALSE,FALSE,FALSE,FALSE,FALSE,FALSE,RAINWATER TANK,BOTH,9E5D6D67DACDBD4B,2021-10-25 14:56:44+00
EAST TAMWORTH,OTHER,Rotary/Lions Park - Tamworth,,,-31.10842,150.95408,TAMWORTH,NORTHERN REGION,2.0km North of Tamworth,ARMIDALE ROAD,0000009,0980,A1,"0000009,0980,A1",,RIGHT,REST AREA,LIGHT VEHICLES ONLY,FALSE,TRUE,FALSE,FALSE,FALSE,TRUE,TRUE,TRUE,BOTH,FALSE,TRUE,FALSE,FALSE,TRUE,TRUE,TRUE,2,FALSE,FALSE,TRUE,FALSE,FALSE,FALSE,FALSE,FALSE,FALSE,RAINWATER TANK,BOTH,55ACEFCB524809BC,2021-10-25 14:56:44+00
MOONBI,RMS,Glen Ayr,,OPEN,-31.01325,151.08175,TAMWORTH,NORTHERN REGION,21.5km North of Tamworth,NEW ENGLAND HIGHWAY,0000009,1014,A1,"0000009,1014,A1",PHYSICAL SEPARATION,LEFT,REST AREA,LIGHT VEHICLES ONLY,FALSE,FALSE,FALSE,FALSE,FALSE,TRUE,FALSE,TRUE,PRESCRIBED,FALSE,FALSE,FALSE,FALSE,TRUE,FALSE,TRUE,0,FALSE,FALSE,FALSE,FALSE,FALSE,FALSE,FALSE,FALSE,FALSE,NONE,,8199482ABFAA5AC6,2021-10-25 14:56:44+00
MOONBI,OTHER,Moonbi Lookout,,,-30.97296,151.10394,TAMWORTH,NORTHERN REGION,26.7km North of Tamworth,NEW ENGLAND HIGHWAY,0000009,1031,B1,"0000009,1031,B1",,LEFT,REST AREA,LIGHT VEHICLES ONLY,FALSE,FALSE,FALSE,FALSE,FALSE,TRUE,FALSE,FALSE,BOTH,FALSE,FALSE,FALSE,FALSE,TRUE,FALSE,FALSE,0,FALSE,TRUE,FALSE,FALSE,FALSE,FALSE,FALSE,FALSE,FALSE,NONE,BOTH,B036E894C263C951,2021-10-25 14:56:44+00
RICHMOND,COUNCIL,,,,-33.60518,150.77554,HAWKESBURY,SYDNEY PARKLAND ZONE,0.07km from Ritchmond,WINDSOR ST,0000184,0370,A1,"0000184,0370,A1",,LEFT,PARKING AREA,BOTH LIGHT AND HEAVY VEHICLES,FALSE,FALSE,FALSE,FALSE,FALSE,TRUE,FALSE,FALSE,BOTH,FALSE,FALSE,FALSE,FALSE,TRUE,FALSE,FALSE,0,FALSE,FALSE,FALSE,FALSE,FALSE,FALSE,FALSE,FALSE,FALSE,NONE,BOTH,1C181402C2D48279,2021-10-25 14:56:44+00
BENDEMEER,RMS,Muswell Hill,,OPEN,-30.80559,151.25573,TAMWORTH,NORTHERN REGION,54.4km North of Tamworth,NEW ENGLAND HIGHWAY,0000009,1072,A2,"0000009,1072,A2",PHYSICAL SEPARATION,LEFT,REST AREA,BOTH LIGHT AND HEAVY VEHICLES,FALSE,FALSE,FALSE,FALSE,FALSE,TRUE,FALSE,TRUE,PRESCRIBED,FALSE,FALSE,FALSE,FALSE,TRUE,FALSE,FALSE,1,FALSE,FALSE,FALSE,FALSE,FALSE,FALSE,FALSE,FALSE,FALSE,RAINWATER TANK,,4DD5F22C1C966476,2021-10-25 14:56:44+00
KENTUCKY,RMS,Kyabia,,OPEN,-30.75289,151.38376,TAMWORTH,NORTHERN REGION,69.5km North of Tamworth,NEW ENGLAND HIGHWAY,0000009,1082,A2,"0000009,1082,A2",PHYSICAL SEPARATION,LEFT,REST AREA,LIGHT VEHICLES ONLY,FALSE,FALSE,FALSE,FALSE,FALSE,TRUE,FALSE,TRUE,BOTH,FALSE,FALSE,FALSE,FALSE,TRUE,FALSE,TRUE,0,FALSE,FALSE,FALSE,FALSE,FALSE,FALSE,FALSE,FALSE,FALSE,NONE,BOTH,F49AD2CFE1B2B96D,2021-10-25 14:56:44+00
ARMIDALE,OTHER,Lions Park - West Armidale,,,-30.49351,151.65104,ARMIDALE REGIONAL,NORTHERN REGION,4.8km North of Armidale,NEW ENGLAND HIGHWAY,0000009,1205,A1,"0000009,1205,A1",,LEFT,REST AREA,LIGHT VEHICLES ONLY,FALSE,FALSE,FALSE,FALSE,FALSE,TRUE,FALSE,FALSE,PRESCRIBED,FALSE,FALSE,FALSE,FALSE,TRUE,FALSE,TRUE,0,FALSE,FALSE,FALSE,FALSE,FALSE,FALSE,FALSE,FALSE,FALSE,NONE,,E7C998540AD265AE,2021-10-25 14:56:44+00
RIXS CREEK,RMS,Rixs Creek,NULL,OPEN,-32.5334,151.14112,SINGLETON,HUNTER REGION,5.2km from Singleton,NEW ENGLAND HIGHWAY,0000009,0445,A1,"0000009,0445,A1",PHYSICAL SEPARATION,RIGHT,REST AREA,BOTH LIGHT AND HEAVY VEHICLES,FALSE,FALSE,FALSE,TRUE,FALSE,TRUE,FALSE,TRUE,BOTH,TRUE,FALSE,FALSE,FALSE,TRUE,FALSE,TRUE,2,FALSE,FALSE,FALSE,TRUE,FALSE,FALSE,FALSE,FALSE,FALSE,WATER TRUCK,BOTH,DEAE6789C8DC3A3D,2021-10-25 14:56:44+00
COOTAMUNDRA,COUNCIL,Migurra Reserve,,,-34.71983,147.90429,COOTAMUNDRA-GUNDAGAI REGIONAL,SOUTH WEST REGION,37km from Junee and  15km to Cootamundra,OLYMPIC HIGHWAY,0000078,0380,A4,"0000078,0380,A4",,LEFT,PARKING AREA,BOTH LIGHT AND HEAVY VEHICLES,FALSE,TRUE,FALSE,FALSE,FALSE,TRUE,FALSE,FALSE,BOTH,FALSE,TRUE,FALSE,FALSE,TRUE,FALSE,TRUE,0,FALSE,FALSE,FALSE,FALSE,FALSE,FALSE,FALSE,FALSE,FALSE,NONE,BOTH,2268F494385A0951,2021-10-25 14:56:44+00
GUNGAL,RMS,Battery Rocks Rest Area,NULL,OPEN,-32.21324,150.46078,MUSWELLBROOK,HUNTER REGION,15.3km from Merriwa,GOLDEN HIGHWAY,0000027,0200,A1,"0000027,0200,A1",PHYSICAL SEPARATION,LEFT,REST AREA,LIGHT VEHICLES ONLY,FALSE,TRUE,FALSE,FALSE,FALSE,TRUE,FALSE,TRUE,BOTH,TRUE,TRUE,FALSE,FALSE,TRUE,FALSE,TRUE,2,FALSE,FALSE,FALSE,FALSE,FALSE,FALSE,FALSE,FALSE,TRUE,RAINWATER TANK,BOTH,CAA16B4B7C4A8810,2021-10-25 14:56:44+00
GUNGAL,RMS,HV Parking Area Westwood,NULL,OPEN,-32.2265,150.46965,MUSWELLBROOK,HUNTER REGION,17.0km from Merriwa,GOLDEN HIGHWAY,0000027,0200,A1,"0000027,0200,A1",PHYSICAL SEPARATION,RIGHT,PARKING AREA,HEAVY VEHICLES ONLY,FALSE,FALSE,FALSE,FALSE,FALSE,TRUE,FALSE,TRUE,COUNTER,FALSE,FALSE,FALSE,FALSE,TRUE,FALSE,TRUE,0,FALSE,FALSE,FALSE,FALSE,FALSE,FALSE,FALSE,FALSE,FALSE,NONE,,1D97D3C97978C59F,2021-10-25 14:56:44+00
NARRANDERA,COUNCIL,Narrandera Visitors Centre,N,OPEN,-34.74568,146.55029,NARRANDERA,SOUTH WEST REGION,0km from Narrandera and 135km to West Wyalong,CADELL ST,0000017,2280,A1,"0000017,2280,A1",MAIN CARRIAGEWAY,LEFT,REST AREA,LIGHT VEHICLES ONLY,FALSE,TRUE,FALSE,FALSE,TRUE,TRUE,FALSE,TRUE,BOTH,TRUE,TRUE,FALSE,TRUE,TRUE,TRUE,TRUE,6,TRUE,FALSE,FALSE,FALSE,TRUE,FALSE,FALSE,FALSE,TRUE,TOWN SUPPLY,BOTH,0A7C89DE5D5ECABF,2021-10-25 14:56:44+00
FINLEY,OTHER,McAllister Park,N,OPEN,-35.63388,145.5746,BERRIGAN,SOUTH WEST REGION,,RIVERINA HIGHWAY,0000020,1410,A1,"0000020,1410,A1",PHYSICAL SEPARATION,RIGHT,REST AREA,LIGHT VEHICLES ONLY,FALSE,FALSE,FALSE,FALSE,FALSE,TRUE,FALSE,TRUE,BOTH,TRUE,FALSE,FALSE,FALSE,TRUE,FALSE,TRUE,5,FALSE,FALSE,FALSE,FALSE,FALSE,FALSE,FALSE,FALSE,FALSE,TOWN SUPPLY,BOTH,725E39ED44237A4B,2021-10-25 14:56:44+00
TALBINGO,NATIONAL PARKS AND WILDLIFE SERVICE,Black Perry Lookout,,,-35.59461,148.35626,SNOWY VALLEYS,SOUTH WEST REGION,135km from Cooma and 46km to Tumut,SNOWY MOUNTAINS HIGHWAY,0000004,0472,A1,"0000004,0472,A1",,RIGHT,REST AREA,LIGHT VEHICLES ONLY,FALSE,FALSE,FALSE,FALSE,FALSE,FALSE,FALSE,TRUE,BOTH,FALSE,FALSE,FALSE,FALSE,TRUE,FALSE,FALSE,0,FALSE,TRUE,FALSE,FALSE,FALSE,FALSE,FALSE,FALSE,FALSE,NONE,BOTH,6D337FC0ED1228FE,2021-10-25 14:56:44+00
WANG WAUK,RMS,Wang Wauk,NULL,OPEN,-32.15311,152.32303,MID-COAST,HUNTER REGION,134.1km from Newcastle,PACIFIC HIGHWAY,0000010,1949,B1,"0000010,1949,B1",PHYSICAL SEPARATION,LEFT,REST AREA,BOTH LIGHT AND HEAVY VEHICLES,FALSE,TRUE,FALSE,FALSE,TRUE,TRUE,FALSE,TRUE,BOTH,TRUE,TRUE,FALSE,FALSE,TRUE,FALSE,TRUE,4,FALSE,FALSE,FALSE,FALSE,TRUE,FALSE,FALSE,FALSE,TRUE,WATER TRUCK,BOTH,F93424054DA9141F,2021-10-25 14:56:44+00
BECKOM,RMS,Mirrool South,N,OPEN,-34.34383,147.07613,COOLAMON,SOUTH WEST REGION,85km from Narrandera and 51km to West Wyalong,NEWELL HIGHWAY,0000017,2370,A2,"0000017,2370,A2",MAIN CARRIAGEWAY,LEFT,PARKING AREA,HEAVY VEHICLES ONLY,FALSE,FALSE,FALSE,FALSE,FALSE,TRUE,FALSE,FALSE,PRESCRIBED,FALSE,FALSE,FALSE,FALSE,TRUE,FALSE,FALSE,0,FALSE,FALSE,FALSE,FALSE,FALSE,FALSE,FALSE,FALSE,FALSE,NONE,BOTH,50D04447AC9DA465,2021-10-25 14:56:44+00
FINLEY,COUNCIL,May Lawson Wayside Rest Area,N,OPEN,-35.65025,145.57281,BERRIGAN,SOUTH WEST REGION,20km from Tocumwal  and  1km to Finley,MURRAY ST,0000017,2040,A1,"0000017,2040,A1",PHYSICAL SEPARATION,RIGHT,REST AREA,LIGHT VEHICLES ONLY,FALSE,TRUE,FALSE,FALSE,TRUE,TRUE,FALSE,FALSE,BOTH,TRUE,TRUE,FALSE,FALSE,TRUE,FALSE,TRUE,4,FALSE,FALSE,FALSE,FALSE,FALSE,FALSE,FALSE,FALSE,FALSE,TOWN SUPPLY,BOTH,D10403F422933B69,2021-10-25 14:56:44+00
THORA,COUNCIL,Roses Park,,OPEN,-30.42617,152.77913,BELLINGEN,NORTHERN REGION,14.2km West of Bellingen,WATERFALL WAY,0000076,0060,A1,"0000076,0060,A1",PHYSICAL SEPARATION,RIGHT,REST AREA,LIGHT VEHICLES ONLY,FALSE,TRUE,FALSE,FALSE,FALSE,TRUE,FALSE,FALSE,COUNTER,FALSE,TRUE,FALSE,FALSE,TRUE,FALSE,TRUE,2,FALSE,FALSE,FALSE,FALSE,FALSE,FALSE,FALSE,FALSE,FALSE,SOURCE UNKNOWN,BOTH,A59411EB3840BCA2,2021-10-25 14:56:44+00
UARBRY,RMS,,,,-32.05161,149.74964,COONABARABRAN,WESTERN REGION,67kms from Merriwa.,SCONE-DUNEDOO RD,0000027,0300,A1,"0000027,0300,A1",,LEFT,PARKING AREA,BOTH LIGHT AND HEAVY VEHICLES,FALSE,FALSE,FALSE,FALSE,FALSE,TRUE,FALSE,FALSE,BOTH,FALSE,FALSE,FALSE,FALSE,FALSE,FALSE,FALSE,0,FALSE,FALSE,FALSE,FALSE,FALSE,FALSE,FALSE,FALSE,FALSE,NONE,BOTH,82E5B217D984406F,2021-10-25 14:56:44+00
BOAMBEE,PRIVATE,Sawtell Road Service Station,,OPEN,-30.33508,153.08072,COFFS HARBOUR,NORTHERN REGION,,PACIFIC HIGHWAY,0000010,2479,C3,"0000010,2479,C3",PHYSICAL SEPARATION,RIGHT,HIGHWAY SERVICE CENTRE,LIGHT VEHICLES ONLY,FALSE,FALSE,FALSE,FALSE,FALSE,FALSE,FALSE,FALSE,COUNTER,TRUE,FALSE,FALSE,FALSE,FALSE,FALSE,FALSE,FALSE,FALSE,FALSE,FALSE,FALSE,FALSE,FALSE,FALSE,FALSE,FALSE,,,E718DE50C2343FF6,2021-10-25 14:56:44+00
OURIMBAH,RMS,Ourimbah Rest Area,NULL,OPEN,-33.34418,151.36805,CENTRAL COAST,HUNTER REGION,79km from Sydney,SYDNEY-NEWCASTLE FREEWAY,0006003,1201,B1,"0006003,1201,B1",PHYSICAL SEPARATION,LEFT,REST AREA,LIGHT VEHICLES ONLY,FALSE,TRUE,FALSE,FALSE,TRUE,TRUE,FALSE,TRUE,BOTH,TRUE,TRUE,TRUE,FALSE,TRUE,FALSE,TRUE,7,FALSE,FALSE,FALSE,FALSE,TRUE,FALSE,FALSE,FALSE,TRUE,TOWN SUPPLY,BOTH,AAA6C79DB7A837C5,2021-10-25 14:56:44+00
SANDILANDS,RMS,Bonalbo Road Eastbound,,,-28.90078,152.65355,KYOGLE,NORTHERN REGION,45km West of Casino,BRUXNER HIGHWAY,0000016,0350,A2,"0000016,0350,A2",,RIGHT,PARKING AREA,HEAVY VEHICLES ONLY,FALSE,TRUE,FALSE,FALSE,FALSE,FALSE,FALSE,FALSE,COUNTER,FALSE,TRUE,FALSE,FALSE,TRUE,FALSE,FALSE,0,FALSE,FALSE,FALSE,FALSE,FALSE,FALSE,FALSE,FALSE,FALSE,NONE,,744388A80043BEE8,2021-10-25 14:56:44+00
MURRURUNDI,COUNCIL,Professional Row Park,NULL,OPEN,-31.7602,150.82845,UPPER HUNTER,HUNTER REGION,65km from Muswellbrook,NEW ENGLAND HIGHWAY,0000009,0770,A1,"0000009,0770,A1",MAIN CARRIAGEWAY,LEFT,REST AREA,LIGHT VEHICLES ONLY,FALSE,TRUE,FALSE,FALSE,FALSE,TRUE,FALSE,TRUE,BOTH,TRUE,TRUE,FALSE,FALSE,TRUE,TRUE,TRUE,2,FALSE,FALSE,FALSE,FALSE,FALSE,FALSE,FALSE,FALSE,TRUE,TOWN SUPPLY,BOTH,DF030E1F919129B2,2021-10-25 14:56:44+00
FERODALE,RMS,Medowie Rd Rest Area,NULL,OPEN,-32.66998,151.83492,PORT STEPHENS,HUNTER REGION,40km from Newcastle,PACIFIC HIGHWAY,0000010,1810,C1,"0000010,1810,C1",PHYSICAL SEPARATION,RIGHT,REST AREA,BOTH LIGHT AND HEAVY VEHICLES,FALSE,FALSE,FALSE,FALSE,FALSE,TRUE,FALSE,TRUE,BOTH,TRUE,FALSE,FALSE,FALSE,TRUE,FALSE,TRUE,4,FALSE,FALSE,FALSE,FALSE,TRUE,FALSE,FALSE,FALSE,TRUE,RAINWATER TANK,BOTH,C278265F22C0FA7C,2021-10-25 14:56:44+00
HOWES VALLEY,RMS,NULL,NULL,OPEN,-32.88245,150.77946,SINGLETON,HUNTER REGION,108.48km from Windsor,THE PUTTY RD,0000503,1140,A3,"0000503,1140,A3",MAIN CARRIAGEWAY,LEFT,PARKING AREA,LIGHT VEHICLES ONLY,FALSE,TRUE,FALSE,FALSE,FALSE,TRUE,FALSE,TRUE,BOTH,FALSE,TRUE,FALSE,FALSE,FALSE,FALSE,FALSE,0,FALSE,FALSE,FALSE,FALSE,FALSE,FALSE,FALSE,FALSE,FALSE,NONE,BOTH,F2CFD299D7B1BBD6,2021-10-25 14:56:44+00
WARNERVALE,PRIVATE,Wyong Service Centre S/B,NULL,OPEN,-33.25159,151.40478,CENTRAL COAST,HUNTER REGION,97.47km from Newcastle,SYDNEY-NEWCASTLE FREEWAY,0006003,1229,U1,"0006003,1229,U1",PHYSICAL SEPARATION,RIGHT,HIGHWAY SERVICE CENTRE,BOTH LIGHT AND HEAVY VEHICLES,FALSE,FALSE,FALSE,FALSE,TRUE,TRUE,FALSE,TRUE,COUNTER,TRUE,FALSE,TRUE,FALSE,FALSE,FALSE,TRUE,3,TRUE,FALSE,FALSE,FALSE,FALSE,TRUE,TRUE,FALSE,FALSE,TOWN SUPPLY,,0EF3C140273DEB17,2021-10-25 14:56:44+00
ALISON,PRIVATE,Wyong Service Centre N/B,NULL,OPEN,-33.25829,151.40327,CENTRAL COAST,HUNTER REGION,90.38km from Sydney,SYDNEY-NEWCASTLE FREEWAY,0006003,1227,R1,"0006003,1227,R1",PHYSICAL SEPARATION,LEFT,HIGHWAY SERVICE CENTRE,BOTH LIGHT AND HEAVY VEHICLES,FALSE,FALSE,FALSE,FALSE,TRUE,TRUE,FALSE,TRUE,PRESCRIBED,TRUE,FALSE,TRUE,FALSE,FALSE,FALSE,TRUE,3,TRUE,FALSE,FALSE,FALSE,FALSE,TRUE,TRUE,FALSE,FALSE,TOWN SUPPLY,,52A823279F428371,2021-10-25 14:56:44+00
BERESFIELD,PRIVATE,Beresfield Service Centre,NULL,OPEN,-32.81188,151.63909,NEWCASTLE,HUNTER REGION,15.38km from Maitland,JOHN RENSHAW DR,0000588,0010,C4,"0000588,0010,C4",PHYSICAL SEPARATION,RIGHT,HIGHWAY SERVICE CENTRE,BOTH LIGHT AND HEAVY VEHICLES,FALSE,FALSE,FALSE,FALSE,TRUE,TRUE,FALSE,TRUE,COUNTER,TRUE,FALSE,TRUE,FALSE,FALSE,FALSE,TRUE,3,TRUE,FALSE,FALSE,FALSE,FALSE,TRUE,TRUE,FALSE,FALSE,TOWN SUPPLY,,A3A28D4FF357D5DE,2021-10-25 14:56:44+00
BRANXTON,RMS,Branxton Truck Rest Area,NULL,OPEN,-32.65729,151.33726,CESSNOCK,HUNTER REGION,3.2 km from Branxton,HUNTER EXPRESSWAY,0006011,0240,B1,"0006011,0240,B1",PHYSICAL SEPARATION,LEFT,REST AREA,HEAVY VEHICLES ONLY,FALSE,FALSE,FALSE,FALSE,FALSE,TRUE,FALSE,TRUE,PRESCRIBED,TRUE,FALSE,FALSE,FALSE,TRUE,FALSE,TRUE,4,FALSE,FALSE,FALSE,FALSE,FALSE,FALSE,FALSE,FALSE,FALSE,TOWN SUPPLY,,7C8730B8E50C51C4,2021-10-25 14:56:44+00
MOORLAND,RMS,Tom Cat Creek Rest Area,NULL,OPEN,-31.76568,152.66888,MID-COAST,HUNTER REGION,32.9km North of Taree,PACIFIC HWY,0000010,2055,B2,"0000010,2055,B2",PHYSICAL SEPARATION,LEFT,REST AREA,LIGHT VEHICLES ONLY,FALSE,TRUE,FALSE,FALSE,FALSE,TRUE,FALSE,TRUE,BOTH,TRUE,TRUE,FALSE,FALSE,TRUE,FALSE,TRUE,4,TRUE,FALSE,FALSE,FALSE,FALSE,FALSE,FALSE,FALSE,TRUE,WATER TRUCK,BOTH,05521B195C020541,2021-10-25 14:56:44+00
MILBRODALE,RMS,Truck Drivers Memorial,NULL,OPEN,-32.6953,151.00655,SINGLETON,HUNTER REGION,146.6km from WindsoR,THE PUTTY RD,0000503,1190,A2,"0000503,1190,A2",PHYSICAL SEPARATION,RIGHT,REST AREA,BOTH LIGHT AND HEAVY VEHICLES,FALSE,TRUE,FALSE,FALSE,FALSE,TRUE,FALSE,TRUE,BOTH,FALSE,TRUE,TRUE,FALSE,FALSE,FALSE,TRUE,0,FALSE,FALSE,FALSE,FALSE,FALSE,FALSE,FALSE,FALSE,TRUE,WATER TRUCK,BOTH,5192296BCF59A25C,2021-10-25 14:56:44+00
BUCHANAN,RMS,Wattaka Rest Areas,NULL,OPEN,-32.84505,151.54231,CESSNOCK,HUNTER REGION,7.6 km from Kurri Kurri,HUNTER EXPRESSWAY,0006011,0060,B1,"0006011,0060,B1",PHYSICAL SEPARATION,LEFT,REST AREA,BOTH LIGHT AND HEAVY VEHICLES,FALSE,TRUE,FALSE,TRUE,FALSE,TRUE,FALSE,TRUE,PRESCRIBED,TRUE,TRUE,TRUE,FALSE,TRUE,FALSE,TRUE,4,FALSE,FALSE,FALSE,TRUE,FALSE,TRUE,FALSE,FALSE,FALSE,RAINWATER TANK,,5AD1800E4198081D,2021-10-25 14:56:44+00
DURAL,COUNCIL,Bulga War Memorial & Garden,NULL,OPEN,-33.65343,151.01998,SINGLETON,HUNTER REGION,0.137km from Bulga,THE PUTTY RD,0000503,1190,A2,"0000503,1190,A2",PHYSICAL SEPARATION,LEFT,REST AREA,LIGHT VEHICLES ONLY,FALSE,TRUE,FALSE,FALSE,TRUE,TRUE,FALSE,TRUE,BOTH,TRUE,TRUE,TRUE,TRUE,FALSE,TRUE,TRUE,2,TRUE,FALSE,FALSE,FALSE,TRUE,FALSE,FALSE,FALSE,TRUE,RAINWATER TANK,BOTH,DD442F2126238FC1,2021-10-25 14:56:44+00
ABERDEEN,COUNCIL,Taylor Park,NULL,OPEN,-32.16117,150.88881,UPPER HUNTER,HUNTER REGION,12km from Muswellbrook,NEW ENGLAND HIGHWAY,0000009,0631,A2,"0000009,0631,A2",PHYSICAL SEPARATION,LEFT,REST AREA,LIGHT VEHICLES ONLY,FALSE,TRUE,FALSE,FALSE,FALSE,TRUE,FALSE,TRUE,BOTH,TRUE,TRUE,TRUE,FALSE,TRUE,FALSE,TRUE,3,TRUE,FALSE,FALSE,FALSE,FALSE,FALSE,FALSE,FALSE,TRUE,TOWN SUPPLY,BOTH,4BCF45D52153476F,2021-10-25 14:56:44+00
KIWARRAK,RMS,Four Mile Hill Rest Area,NULL,OPEN,-31.96572,152.46485,MID-COAST,HUNTER REGION,162.6km from Newcastle,PACIFIC HIGHWAY,0000010,1983,B1,"0000010,1983,B1",PHYSICAL SEPARATION,LEFT,REST AREA,BOTH LIGHT AND HEAVY VEHICLES,FALSE,TRUE,FALSE,FALSE,TRUE,TRUE,FALSE,TRUE,PRESCRIBED,TRUE,TRUE,TRUE,FALSE,TRUE,FALSE,TRUE,4,FALSE,FALSE,FALSE,FALSE,TRUE,FALSE,FALSE,FALSE,TRUE,TOWN SUPPLY,,59F2660ABD5EF54B,2021-10-25 14:56:44+00
COOLONGOLOOK,RMS,Kennedys Gap Rest Area,NULL,OPEN,-32.25074,152.32333,MID-COAST,HUNTER REGION,122.8km from Newcastle,PACIFIC HIGHWAY,0000010,1927,C1,"0000010,1927,C1",PHYSICAL SEPARATION,RIGHT,REST AREA,BOTH LIGHT AND HEAVY VEHICLES,FALSE,TRUE,FALSE,TRUE,FALSE,TRUE,FALSE,TRUE,COUNTER,TRUE,TRUE,FALSE,FALSE,TRUE,FALSE,TRUE,3,FALSE,FALSE,FALSE,TRUE,FALSE,FALSE,FALSE,FALSE,TRUE,WATER TRUCK,,C8469FE44D9400EF,2021-10-25 14:56:44+00
ABERDARE,COUNCIL,Turner Park,NULL,OPEN,-32.8413,151.36496,CESSNOCK,HUNTER REGION,35.61km from Toronto,ABERDARE RD,0000220,0140,A1,"0000220,0140,A1",PHYSICAL SEPARATION,LEFT,REST AREA,LIGHT VEHICLES ONLY,FALSE,TRUE,FALSE,FALSE,FALSE,TRUE,FALSE,TRUE,BOTH,TRUE,TRUE,TRUE,TRUE,TRUE,FALSE,TRUE,3,FALSE,FALSE,FALSE,FALSE,FALSE,FALSE,FALSE,FALSE,TRUE,TOWN SUPPLY,BOTH,6CA4A4EBFAED9250,2021-10-25 14:56:44+00
BUCHANAN,RMS,Wattaka Rest Areas,NULL,OPEN,-32.84469,151.54355,CESSNOCK,HUNTER REGION,7.6 Km Kurri Kurri,HUNTER EXPRESSWAY,0006011,0060,C1,"0006011,0060,C1",PHYSICAL SEPARATION,RIGHT,REST AREA,BOTH LIGHT AND HEAVY VEHICLES,FALSE,TRUE,FALSE,TRUE,FALSE,TRUE,FALSE,TRUE,COUNTER,TRUE,TRUE,TRUE,FALSE,TRUE,FALSE,TRUE,4,FALSE,FALSE,FALSE,TRUE,FALSE,TRUE,FALSE,FALSE,FALSE,RAINWATER TANK,,F2C0BBBDCF162A16,2021-10-25 14:56:44+00
JOHNS RIVER,PRIVATE,Johns River Rest Area,NULL,OPEN,-31.72956,152.69641,MID-COAST,HUNTER REGION,38.0km north of Taree,ROFF TO JOHNS RIVER,0000010,2065,R1,"0000010,2065,R1",PHYSICAL SEPARATION,RIGHT,REST AREA,BOTH LIGHT AND HEAVY VEHICLES,FALSE,FALSE,FALSE,FALSE,TRUE,TRUE,FALSE,TRUE,BOTH,TRUE,FALSE,TRUE,FALSE,FALSE,FALSE,TRUE,2,FALSE,FALSE,FALSE,FALSE,FALSE,FALSE,FALSE,FALSE,TRUE,TOWN SUPPLY,BOTH,F370DBA490D638F0,2021-10-25 14:56:44+00
NERONG,RMS,Nerong Waterholes Rest Area,NULL,OPEN,-32.55066,152.1517,MID-COAST,HUNTER REGION,77km from Newcastle,Pacific Highway,0000010,1857,B2,"0000010,1857,B2",PHYSICAL SEPARATION,LEFT,REST AREA,BOTH LIGHT AND HEAVY VEHICLES,FALSE,FALSE,FALSE,FALSE,FALSE,TRUE,TRUE,TRUE,PRESCRIBED,TRUE,FALSE,FALSE,FALSE,TRUE,FALSE,TRUE,4,FALSE,FALSE,FALSE,FALSE,TRUE,FALSE,FALSE,FALSE,TRUE,RAINWATER TANK,BOTH,20F37634BCD09826,2021-10-25 14:56:44+00
BLANDFORD,COUNCIL,Clarke St Rest Area,NULL,OPEN,-31.7772,150.89234,UPPER HUNTER,HUNTER REGION,96km from Tamworth,NEW ENGLAND HIGHWAY,0000009,0755,A1,"0000009,0755,A1",PHYSICAL SEPARATION,RIGHT,REST AREA,LIGHT VEHICLES ONLY,FALSE,TRUE,FALSE,FALSE,FALSE,TRUE,FALSE,TRUE,BOTH,TRUE,TRUE,FALSE,FALSE,TRUE,FALSE,TRUE,3,FALSE,FALSE,FALSE,FALSE,FALSE,FALSE,FALSE,FALSE,TRUE,RAINWATER TANK,BOTH,B4473F9A8BF7C519,2021-10-25 14:56:44+00
MILBRODALE,RMS,Fire Place,NULL,OPEN,-32.71625,150.94753,SINGLETON,HUNTER REGION,139.68km from Windsor,THE PUTTY RD,0000503,1180,A3,"0000503,1180,A3",PHYSICAL SEPARATION,RIGHT,PARKING AREA,LIGHT VEHICLES ONLY,FALSE,TRUE,FALSE,FALSE,FALSE,TRUE,FALSE,TRUE,BOTH,FALSE,TRUE,FALSE,FALSE,TRUE,FALSE,FALSE,0,FALSE,FALSE,FALSE,FALSE,FALSE,FALSE,FALSE,FALSE,FALSE,NONE,BOTH,86B2DA2B2E88E37C,2021-10-25 14:56:44+00
MERRIWA,COUNCIL,Merriwa Rest Area,NULL,OPEN,-32.13909,150.34995,UPPER HUNTER,HUNTER REGION,0.05km from Merriwa,GOLDEN HIGHWAY (TELFER AVE),0000027,0240,A2,"0000027,0240,A2",PHYSICAL SEPARATION,RIGHT,REST AREA,BOTH LIGHT AND HEAVY VEHICLES,FALSE,TRUE,FALSE,FALSE,FALSE,TRUE,FALSE,TRUE,BOTH,TRUE,TRUE,TRUE,FALSE,TRUE,TRUE,TRUE,2,FALSE,FALSE,FALSE,FALSE,FALSE,FALSE,FALSE,FALSE,TRUE,TOWN SUPPLY,BOTH,D4FCF351A040C96B,2021-10-25 14:56:44+00
PUTTY,RMS,Swamp Creek Rest Area,NULL,OPEN,-32.94087,150.70198,SINGLETON,HUNTER REGION,96.6km from Windsor,THE PUTTY RD,0000503,1140,A3,"0000503,1140,A3",PHYSICAL SEPARATION,LEFT,REST AREA,LIGHT VEHICLES ONLY,FALSE,TRUE,FALSE,FALSE,FALSE,TRUE,TRUE,TRUE,BOTH,FALSE,TRUE,TRUE,FALSE,TRUE,FALSE,TRUE,0,FALSE,FALSE,FALSE,FALSE,FALSE,FALSE,FALSE,FALSE,TRUE,WATER TRUCK,BOTH,F820746EBD53591C,2021-10-25 14:56:44+00
WARKWORTH,RMS,HV Inspection Bay E/B,NULL,OPEN,-32.5395,150.97331,SINGLETON,HUNTER REGION,30.5km from Whittingham,GOLDEN HIGHWAY,0000027,0080,A2,"0000027,0080,A2",MAIN CARRIAGEWAY,RIGHT,HEAVY VEHICLE INSPECTION AREA,HEAVY VEHICLES ONLY,FALSE,FALSE,FALSE,FALSE,FALSE,TRUE,FALSE,TRUE,COUNTER,FALSE,FALSE,FALSE,FALSE,TRUE,FALSE,TRUE,0,FALSE,FALSE,FALSE,FALSE,FALSE,FALSE,FALSE,FALSE,FALSE,NONE,BOTH,F3D397A2E0335555,2021-10-25 14:56:44+00
WALCHA,COUNCIL,Captain Cook Park Rest Area,,,-30.98558,151.59488,WALCHA,NORTHERN REGION,163.0km West of Wauchope,OXLEY HIGHWAY,0000011,0435,A1,"0000011,0435,A1",,LEFT,REST AREA,LIGHT VEHICLES ONLY,FALSE,FALSE,FALSE,FALSE,FALSE,TRUE,FALSE,FALSE,BOTH,FALSE,FALSE,FALSE,FALSE,TRUE,FALSE,FALSE,0,FALSE,FALSE,FALSE,FALSE,FALSE,FALSE,FALSE,FALSE,FALSE,NONE,BOTH,103B13B658822BD5,2021-10-25 14:56:44+00
WALCHA,COUNCIL,McHatten Park,,,-30.9851,151.59135,WALCHA,NORTHERN REGION,0.2km West of Walcha,FITZROY STREET,0000011,0455,A1,"0000011,0455,A1",,LEFT,REST AREA,LIGHT VEHICLES ONLY,FALSE,FALSE,FALSE,FALSE,FALSE,FALSE,FALSE,FALSE,BOTH,FALSE,FALSE,FALSE,FALSE,TRUE,FALSE,FALSE,0,FALSE,FALSE,FALSE,FALSE,FALSE,FALSE,FALSE,FALSE,FALSE,NONE,BOTH,AD5DCFD9DEDAF139,2021-10-25 14:56:44+00
WALCHA,COUNCIL,Lions Park - Walcha,,,-30.98344,151.58181,WALCHA,NORTHERN REGION,1.1km West of Walcha,FITZROY STREET,0000011,0455,A1,"0000011,0455,A1",,RIGHT,REST AREA,LIGHT VEHICLES ONLY,FALSE,TRUE,FALSE,FALSE,TRUE,TRUE,FALSE,FALSE,BOTH,FALSE,TRUE,FALSE,FALSE,TRUE,TRUE,TRUE,2,FALSE,FALSE,FALSE,FALSE,FALSE,FALSE,FALSE,FALSE,FALSE,TOWN SUPPLY,BOTH,685E387C571CB9CA,2021-10-25 14:56:44+00
KOOTINGAL,COUNCIL,Federation Park - Kootingal,,,-31.0441,151.056,TAMWORTH,NORTHERN REGION,17.2km North of Tamworth,NEW ENGLAND HIGHWAY,0000009,1000,A1,"0000009,1000,A1",,RIGHT,REST AREA,LIGHT VEHICLES ONLY,FALSE,TRUE,FALSE,FALSE,FALSE,FALSE,FALSE,FALSE,BOTH,FALSE,TRUE,FALSE,FALSE,TRUE,FALSE,TRUE,0,FALSE,FALSE,FALSE,FALSE,FALSE,FALSE,FALSE,FALSE,FALSE,NONE,BOTH,849979CFBC702F92,2021-10-25 14:56:44+00
URALLA,COUNCIL,Barley Fields Road - Uralla,,,-30.63876,151.50675,URALLA,NORTHERN REGION,87.8km North of Tamworth,BRIDGE STREET,0000009,1135,A1,"0000009,1135,A1",,RIGHT,REST AREA,LIGHT VEHICLES ONLY,FALSE,FALSE,FALSE,FALSE,FALSE,TRUE,FALSE,FALSE,BOTH,FALSE,FALSE,FALSE,FALSE,TRUE,TRUE,TRUE,0,FALSE,FALSE,FALSE,FALSE,FALSE,FALSE,FALSE,FALSE,FALSE,NONE,BOTH,852FAC044BB1BC87,2021-10-25 14:56:44+00
BOGGABRI,RMS,,,,-30.7406,150.07102,GUNNEDAH,WESTERN REGION,3.2km South of Boagabru,KAMILAROI HIGHWAY,0000029,0207,A1,"0000029,0207,A1",,RIGHT,PARKING AREA,HEAVY VEHICLES ONLY,FALSE,FALSE,FALSE,FALSE,FALSE,FALSE,FALSE,FALSE,BOTH,FALSE,FALSE,FALSE,FALSE,TRUE,FALSE,FALSE,0,FALSE,FALSE,FALSE,FALSE,FALSE,FALSE,FALSE,FALSE,FALSE,NONE,BOTH,3AAE7ED2AC92F1DC,2021-10-25 14:56:44+00
WYALONG,COUNCIL,Cooinda Park,,,-33.92431,147.2342,BLAND,SOUTH WEST REGION,3km from West Wyalong and 101km to Forbes,NEELD ST,0000017,2470,A3,"0000017,2470,A3",,LEFT,REST AREA,LIGHT VEHICLES ONLY,FALSE,TRUE,FALSE,FALSE,FALSE,TRUE,FALSE,TRUE,BOTH,TRUE,TRUE,FALSE,FALSE,TRUE,TRUE,TRUE,4,FALSE,FALSE,FALSE,FALSE,FALSE,FALSE,FALSE,FALSE,FALSE,TOWN SUPPLY,BOTH,0F953ED6FCC51755,2021-10-25 14:56:44+00
EUSTON,COUNCIL,Benanee Lake,,OPEN,-34.51901,142.87618,BALRANALD,SOUTH WEST REGION,65km from Balranald and 15km to Euston,STURT HIGHWAY,0000014,0530,A2,"0000014,0530,A2",PHYSICAL SEPARATION,LEFT,REST AREA,LIGHT VEHICLES ONLY,FALSE,TRUE,FALSE,FALSE,FALSE,TRUE,FALSE,FALSE,BOTH,FALSE,TRUE,FALSE,FALSE,TRUE,FALSE,TRUE,4,TRUE,FALSE,FALSE,FALSE,FALSE,FALSE,FALSE,TRUE,FALSE,TOWN SUPPLY,BOTH,22E8C49D21345ADD,2021-10-25 14:56:44+00
BOOKHAM,RMS,Bookham,N,OPEN,-34.8133,148.6418,YASS VALLEY,SOUTH WEST REGION,32km from Yass and 69km to Gundagai,HUME HIGHWAY,0000002,1650,B1,"0000002,1650,B1",PHYSICAL SEPARATION,LEFT,REST AREA,LIGHT VEHICLES ONLY,FALSE,FALSE,FALSE,TRUE,FALSE,TRUE,FALSE,TRUE,BOTH,TRUE,FALSE,FALSE,FALSE,TRUE,FALSE,TRUE,7,FALSE,FALSE,FALSE,TRUE,FALSE,FALSE,FALSE,FALSE,FALSE,TOWN SUPPLY,BOTH,A66996B3AC29D507,2021-10-25 14:56:44+00
KERI KERI,RMS,Willowvale,,OPEN,-34.72314,143.92719,HAY,SOUTH WEST REGION,91 km from Hay and 40km to Balranald,STURT HIGHWAY,0000014,0420,A1,"0000014,0420,A1",PHYSICAL SEPARATION,RIGHT,REST AREA,BOTH LIGHT AND HEAVY VEHICLES,FALSE,FALSE,FALSE,FALSE,FALSE,TRUE,FALSE,TRUE,BOTH,TRUE,FALSE,FALSE,FALSE,TRUE,FALSE,TRUE,2,FALSE,FALSE,FALSE,FALSE,FALSE,FALSE,FALSE,FALSE,FALSE,WATER TRUCK,BOTH,FE50AE968A799C3C,2021-10-25 14:56:44+00
GOOLGOWI,RMS,"KIDMAN WAY, GOOLGOWI",,,-33.98441,145.70999,CARRATHOOL,SOUTH WEST REGION,50km from Griffith and 60km to Hillston,KIDMAN WAY,0000080,0260,A1,"0000080,0260,A1",,RIGHT,PARKING AREA,BOTH LIGHT AND HEAVY VEHICLES,FALSE,FALSE,FALSE,FALSE,FALSE,TRUE,FALSE,FALSE,COUNTER,FALSE,FALSE,FALSE,FALSE,TRUE,FALSE,FALSE,0,FALSE,FALSE,FALSE,FALSE,FALSE,FALSE,FALSE,FALSE,FALSE,NONE,BOTH,BF331CAC355D7C0A,2021-10-25 14:56:44+00
HAY,RMS,Sunset Viewing Area,,,-34.37169,144.81354,HAY,SOUTH WEST REGION,15km from Hay and 193km to Ivanhoe,COBB HIGHWAY,0000021,0260,A1,"0000021,0260,A1",,LEFT,PARKING AREA,LIGHT VEHICLES ONLY,FALSE,FALSE,FALSE,FALSE,FALSE,FALSE,FALSE,FALSE,BOTH,FALSE,FALSE,FALSE,FALSE,TRUE,FALSE,TRUE,0,FALSE,FALSE,FALSE,FALSE,FALSE,FALSE,FALSE,FALSE,FALSE,NONE,BOTH,71660CD0CAC6D118,2021-10-25 14:56:44+00
BOOLIGAL,RMS,Jumping Sandhills,,,-33.50036,144.72297,HAY,SOUTH WEST REGION,127km from Hay  and  81km to Ivanhoe,COBB HIGHWAY,0000021,0313,A1,"0000021,0313,A1",,RIGHT,PARKING AREA,LIGHT VEHICLES ONLY,FALSE,FALSE,FALSE,FALSE,FALSE,FALSE,FALSE,FALSE,BOTH,FALSE,FALSE,FALSE,FALSE,TRUE,FALSE,FALSE,0,FALSE,FALSE,FALSE,FALSE,FALSE,FALSE,FALSE,FALSE,FALSE,NONE,BOTH,2055792D9F189AE4,2021-10-25 14:56:44+00
DARLINGTON POINT,COUNCIL,,,,-34.5744,145.9958,MURRUMBIDGEE,SOUTH WEST REGION,99km from  Jerilderie and  34km to Griffith,KIDMAN WAY,0000321,0110,A1,"0000321,0110,A1",,RIGHT,PARKING AREA,BOTH LIGHT AND HEAVY VEHICLES,FALSE,FALSE,FALSE,FALSE,FALSE,TRUE,FALSE,FALSE,COUNTER,TRUE,FALSE,FALSE,FALSE,TRUE,FALSE,TRUE,0,FALSE,FALSE,FALSE,FALSE,FALSE,FALSE,FALSE,FALSE,FALSE,NONE,BOTH,8674DF58A56E887A,2021-10-25 14:56:44+00
HANWOOD,RMS,,,,-34.36947,146.03518,GRIFFITH,SOUTH WEST REGION,25km from Darlington Point and 9km to Griffith,KIDMAN WAY,0000321,0150,A1,"0000321,0150,A1",,LEFT,REST AREA,BOTH LIGHT AND HEAVY VEHICLES,FALSE,FALSE,FALSE,FALSE,FALSE,TRUE,FALSE,FALSE,PRESCRIBED,FALSE,FALSE,FALSE,FALSE,TRUE,FALSE,TRUE,0,FALSE,FALSE,FALSE,FALSE,FALSE,FALSE,FALSE,FALSE,FALSE,NONE,BOTH,D722745F4C3AE58C,2021-10-25 14:56:44+00
NOONA,RMS,Lilyvale Heavy Vehicle Rest Area (West Bound Lane),LILYVALE HEAVY VEHICLE REST AREA (WEST),,-31.58688,144.87466,COBAR,WESTERN REGION,5916m from HW8 segment 446.,BARRIER HIGHWAY,0000008,0130,A2,"0000008,0130,A2",,LEFT,REST AREA,BOTH LIGHT AND HEAVY VEHICLES,FALSE,FALSE,FALSE,FALSE,FALSE,TRUE,FALSE,TRUE,PRESCRIBED,TRUE,FALSE,FALSE,FALSE,TRUE,FALSE,TRUE,1,FALSE,FALSE,FALSE,FALSE,FALSE,FALSE,FALSE,FALSE,FALSE,RAINWATER TANK,,33DA5C8B6DA016E9,2021-10-25 14:56:44+00
CHINDERAH,OTHER,Chinderah Southbound Service Centre,CHINDERAH SERVICE CENTRE SOUTHBOUND ONLY,,-28.24378,153.55759,TWEED,NORTHERN REGION,80km north of Ballina,PACIFIC HIGHWAY,0000010,3381,C3,"0000010,3381,C3",,RIGHT,HIGHWAY SERVICE CENTRE,BOTH LIGHT AND HEAVY VEHICLES,FALSE,FALSE,FALSE,FALSE,FALSE,TRUE,FALSE,FALSE,COUNTER,FALSE,FALSE,FALSE,FALSE,FALSE,FALSE,FALSE,1,FALSE,FALSE,FALSE,FALSE,FALSE,FALSE,FALSE,FALSE,FALSE,TOWN SUPPLY,,95BF3390888E2CFA,2021-10-25 14:56:44+00
MOLONG,RMS,Copper Hill Rest Area,,,-33.0555,148.86221,CABONNE,WESTERN REGION,39km from Orange,WELLINGTON RD,0000007,0405,A1,"0000007,0405,A1",,LEFT,REST AREA,BOTH LIGHT AND HEAVY VEHICLES,FALSE,FALSE,FALSE,FALSE,FALSE,TRUE,FALSE,FALSE,BOTH,FALSE,FALSE,FALSE,FALSE,TRUE,FALSE,FALSE,0,FALSE,FALSE,FALSE,FALSE,FALSE,FALSE,FALSE,FALSE,FALSE,NONE,BOTH,74C3631558446073,2021-10-25 14:56:44+00
HALFWAY CREEK,PRIVATE,Halfway Creek Service Centre,,OPEN,-29.93466,153.09455,CLARENCE VALLEY,NORTHERN REGION,51km from Coffs Harbour,Pacific Highway,0000010,2649,C1,"0000010,2649,C1",PHYSICAL SEPARATION,RIGHT,HIGHWAY SERVICE CENTRE,BOTH LIGHT AND HEAVY VEHICLES,FALSE,FALSE,FALSE,FALSE,FALSE,FALSE,FALSE,TRUE,BOTH,TRUE,FALSE,FALSE,FALSE,FALSE,FALSE,FALSE,2,FALSE,FALSE,FALSE,FALSE,FALSE,FALSE,FALSE,FALSE,FALSE,,BOTH,F4C429839BE16453,2021-10-25 14:56:44+00
COOPERABUNG,RMS,Barry's Creek Northbound,,OPEN,-31.24847,152.82109,PORT MACQUARIE - HASTINGS,NORTHERN REGION,,PACIFIC HIGHWAY,0000010,2245,B1,"0000010,2245,B1",PHYSICAL SEPARATION,LEFT,REST AREA,BOTH LIGHT AND HEAVY VEHICLES,FALSE,FALSE,FALSE,FALSE,FALSE,TRUE,FALSE,TRUE,PRESCRIBED,TRUE,FALSE,FALSE,FALSE,FALSE,FALSE,TRUE,3,TRUE,FALSE,FALSE,FALSE,FALSE,FALSE,FALSE,FALSE,FALSE,,,372B8176F2C20E08,2021-10-25 14:56:44+00
TUCABIA,RMS,Pine Brush Rest Area SB,,OPEN,-29.66216,153.13419,CLARENCE VALLEY,NORTHERN REGION,,Pacific Highway,0000010,2710,C1,"0000010,2710,C1",PHYSICAL SEPARATION,RIGHT,REST AREA,BOTH LIGHT AND HEAVY VEHICLES,FALSE,FALSE,FALSE,FALSE,FALSE,TRUE,FALSE,TRUE,COUNTER,TRUE,FALSE,TRUE,FALSE,FALSE,FALSE,TRUE,4,FALSE,FALSE,FALSE,FALSE,FALSE,FALSE,FALSE,FALSE,FALSE,,,25D77E81D2AD3427,2021-10-25 14:56:44+00
MOUNT KEIRA,RMS,Mount Ousley Heavy Vehicle Rest Area,,OPEN,-34.37495,150.86132,WOLLONGONG,SOUTHERN REGION,6km from Wollongong,MT OUSLEY RD,0000095,0025,B1,"0000095,0025,B1",PHYSICAL SEPARATION,LEFT,REST AREA,BOTH LIGHT AND HEAVY VEHICLES,FALSE,FALSE,FALSE,TRUE,FALSE,TRUE,TRUE,TRUE,PRESCRIBED,TRUE,FALSE,FALSE,FALSE,TRUE,FALSE,TRUE,5,TRUE,FALSE,FALSE,TRUE,TRUE,TRUE,FALSE,FALSE,TRUE,BORE WATER,,E6DB412402FEEA6A,2021-10-25 14:56:44+00
ANABRANCH SOUTH,RMS,Seven Trees Rest Area,,OPEN,-33.46355,141.71043,WENTWORTH,SOUTH WEST REGION,82km from Wentworth and 185km to Broken Hill,SILVER CITY HIGHWAY,0000022,0120,A1,"0000022,0120,A1",PHYSICAL SEPARATION,LEFT,REST AREA,BOTH LIGHT AND HEAVY VEHICLES,FALSE,FALSE,FALSE,FALSE,FALSE,TRUE,FALSE,TRUE,BOTH,FALSE,FALSE,FALSE,FALSE,TRUE,FALSE,FALSE,1,FALSE,FALSE,FALSE,FALSE,FALSE,FALSE,FALSE,FALSE,FALSE,NONE,BOTH,711500E755679099,2021-10-25 14:56:44+00
TUCABIA,RMS,Pine Brush Rest Area NB,,OPEN,-29.66084,153.13335,CLARENCE VALLEY,NORTHERN REGION,,Pacific Highway,0000010,2710,B1,"0000010,2710,B1",PHYSICAL SEPARATION,LEFT,REST AREA,BOTH LIGHT AND HEAVY VEHICLES,FALSE,FALSE,FALSE,FALSE,FALSE,TRUE,FALSE,TRUE,PRESCRIBED,TRUE,FALSE,TRUE,FALSE,FALSE,FALSE,TRUE,4,FALSE,FALSE,FALSE,FALSE,FALSE,FALSE,FALSE,FALSE,FALSE,,,EE7BEA52C1C59CE3,2021-10-25 14:56:44+00
MORUNDAH,RMS,Sandside,Y,OPEN,-35.06089,146.16338,FEDERATION,SOUTH WEST REGION,58km from Jerilderie and  51km to Narrandera,NEWELL HIGHWAY,0000017,2170,A1,"0000017,2170,A1",PHYSICAL SEPARATION,RIGHT,REST AREA,BOTH LIGHT AND HEAVY VEHICLES,FALSE,TRUE,FALSE,FALSE,FALSE,TRUE,FALSE,TRUE,BOTH,TRUE,TRUE,FALSE,FALSE,TRUE,FALSE,TRUE,2,FALSE,FALSE,FALSE,FALSE,FALSE,FALSE,FALSE,FALSE,FALSE,WATER TRUCK,BOTH,B60C3D4F80B3BD39,2021-10-25 14:56:44+00
COOPERABUNG,RMS,Barry's Creek Southbound,,OPEN,-31.24858,152.82243,KEMPSEY,NORTHERN REGION,,PACIFIC HIGHWAY,0000010,2245,C1,"0000010,2245,C1",PHYSICAL SEPARATION,RIGHT,REST AREA,BOTH LIGHT AND HEAVY VEHICLES,FALSE,FALSE,FALSE,FALSE,FALSE,TRUE,FALSE,TRUE,COUNTER,TRUE,FALSE,FALSE,FALSE,FALSE,FALSE,TRUE,3,TRUE,FALSE,FALSE,FALSE,FALSE,FALSE,FALSE,FALSE,FALSE,,,475A5E0A8A1736E9,2021-10-25 14:56:44+00
ARMIDALE,COUNCIL,Quota Park,,OPEN,-30.5243,151.69156,ARMIDALE REGIONAL,NORTHERN REGION,122.0km West of Dorrigo,WATERFALL WAY,0000076,0290,A1,"0000076,0290,A1",,LEFT,REST AREA,LIGHT VEHICLES ONLY,FALSE,FALSE,FALSE,FALSE,FALSE,TRUE,FALSE,FALSE,PRESCRIBED,FALSE,FALSE,FALSE,FALSE,TRUE,FALSE,TRUE,0,FALSE,FALSE,FALSE,FALSE,FALSE,FALSE,FALSE,FALSE,FALSE,NONE,,E6F4713F3860404B,2021-10-25 14:56:44+00
ARMIDALE,COUNCIL,Armidale City McDonald Park,,,-30.51858,151.67155,ARMIDALE REGIONAL,NORTHERN REGION,123.9km West of Dorrigo,BARNEY STREET,0000076,0300,A1,"0000076,0300,A1",,LEFT,REST AREA,LIGHT VEHICLES ONLY,FALSE,TRUE,FALSE,TRUE,TRUE,TRUE,FALSE,TRUE,BOTH,FALSE,TRUE,FALSE,FALSE,TRUE,TRUE,TRUE,2,FALSE,FALSE,FALSE,TRUE,FALSE,FALSE,FALSE,FALSE,FALSE,TOWN SUPPLY,BOTH,C0066D71565493CA,2021-10-25 14:56:44+00
GIBRALTAR RANGE,NATIONAL PARKS AND WILDLIFE SERVICE,Dandahra Picnic Area,,,-29.5148,152.313,SEVERN,NORTHERN REGION,90.8km West of Grafton,GWYDIR HIGHWAY,0000012,0220,A1,"0000012,0220,A1",,LEFT,REST AREA,LIGHT VEHICLES ONLY,FALSE,TRUE,FALSE,FALSE,FALSE,FALSE,TRUE,TRUE,BOTH,FALSE,TRUE,FALSE,FALSE,TRUE,FALSE,TRUE,4,FALSE,FALSE,FALSE,FALSE,FALSE,FALSE,FALSE,FALSE,FALSE,OTHER,BOTH,31CF9C35ABE90310,2021-10-25 14:56:44+00
GLEN INNES,RMS,Beardy Waters Bridge,,OPEN,-29.7239,151.78799,SEVERN,NORTHERN REGION,152.6km West Grafton,GWYDIR HIGHWAY,0000012,0261,A1,"0000012,0261,A1",PHYSICAL SEPARATION,RIGHT,REST AREA,LIGHT VEHICLES ONLY,FALSE,FALSE,FALSE,FALSE,FALSE,TRUE,FALSE,FALSE,BOTH,FALSE,FALSE,FALSE,FALSE,TRUE,FALSE,TRUE,0,FALSE,FALSE,FALSE,FALSE,FALSE,FALSE,FALSE,FALSE,FALSE,OTHER,BOTH,B74553DFBC848DF7,2021-10-25 14:56:44+00
INVERELL,COUNCIL,Inverell Runnymede Drive,,,-29.7809,151.146,INVERELL,NORTHERN REGION,63.5km West of Glen Innes,GWYDIR HIGHWAY,0000012,0380,A1,"0000012,0380,A1",,RIGHT,REST AREA,BOTH LIGHT AND HEAVY VEHICLES,FALSE,FALSE,FALSE,FALSE,FALSE,TRUE,FALSE,FALSE,BOTH,FALSE,FALSE,FALSE,FALSE,TRUE,FALSE,TRUE,0,FALSE,FALSE,FALSE,FALSE,FALSE,FALSE,FALSE,FALSE,FALSE,NONE,BOTH,55709642BB9C638F,2021-10-25 14:56:44+00
WARIALDA,COUNCIL,Kooligun Nature Walk,,,-29.5498,150.591,GWYDIR,NORTHERN REGION,59.3km West of Inverell,GWYDIR HIGHWAY,0000012,0510,A1,"0000012,0510,A1",,LEFT,REST AREA,LIGHT VEHICLES ONLY,FALSE,FALSE,FALSE,FALSE,FALSE,FALSE,FALSE,FALSE,BOTH,FALSE,FALSE,FALSE,FALSE,TRUE,FALSE,TRUE,0,FALSE,FALSE,TRUE,FALSE,FALSE,FALSE,FALSE,FALSE,FALSE,NONE,BOTH,76ABC3BE4B829837,2021-10-25 14:56:44+00
DINOGA,RMS,Andersons Creek - The Ponds Comp,,OPEN,-30.1108,150.59801,GWYDIR,NORTHERN REGION,31.7km North of Barraba,TAMWORTH-YETMAN RD,0000063,0250,A2,"0000063,0250,A2",PHYSICAL SEPARATION,LEFT,REST AREA,BOTH LIGHT AND HEAVY VEHICLES,FALSE,FALSE,FALSE,FALSE,FALSE,TRUE,FALSE,FALSE,BOTH,FALSE,FALSE,FALSE,FALSE,TRUE,FALSE,TRUE,0,FALSE,FALSE,FALSE,FALSE,FALSE,FALSE,FALSE,FALSE,FALSE,RAINWATER TANK,BOTH,CC69FCD80651D2B3,2021-10-25 14:56:44+00
BINGARA,COUNCIL,Bundarra Road - Cunningham Park,,,-29.864,150.576,GWYDIR,NORTHERN REGION,0.8km North of Bingara,EAST STREET,0000063,0310,A1,"0000063,0310,A1",,RIGHT,REST AREA,LIGHT VEHICLES ONLY,FALSE,FALSE,FALSE,FALSE,TRUE,TRUE,FALSE,TRUE,BOTH,FALSE,FALSE,FALSE,FALSE,TRUE,TRUE,TRUE,2,FALSE,FALSE,FALSE,FALSE,FALSE,FALSE,FALSE,FALSE,FALSE,TOWN SUPPLY,BOTH,34F286D13D578F93,2021-10-25 14:56:44+00
GLEN INNES,COUNCIL,Glen Innes East Avenue,,,-29.7349,151.73437,SEVERN,NORTHERN REGION,0.6km West of Glen Innes,FERGUSON STREET,0000012,0300,A1,"0000012,0300,A1",,RIGHT,REST AREA,BOTH LIGHT AND HEAVY VEHICLES,FALSE,FALSE,FALSE,FALSE,FALSE,TRUE,FALSE,TRUE,BOTH,FALSE,FALSE,FALSE,FALSE,TRUE,TRUE,TRUE,2,FALSE,FALSE,FALSE,FALSE,FALSE,FALSE,FALSE,FALSE,FALSE,WATER TRUCK,BOTH,CB132C01C52ADA31,2021-10-25 14:56:44+00
BINGARA,COUNCIL,White Street Park - Bingara,CWA MEMORIAL DRIVE AND BUS STOP,,-29.8608,150.57384,GWYDIR,NORTHERN REGION,1.3km North of Bingara,TAMWORTH-YETMAN RD,0000063,0320,A1,"0000063,0320,A1",,LEFT,REST AREA,BOTH LIGHT AND HEAVY VEHICLES,FALSE,FALSE,FALSE,FALSE,FALSE,TRUE,FALSE,FALSE,BOTH,FALSE,FALSE,FALSE,FALSE,TRUE,FALSE,TRUE,0,FALSE,FALSE,FALSE,FALSE,FALSE,FALSE,FALSE,FALSE,FALSE,TOWN SUPPLY,BOTH,912B9586EFF55E2D,2021-10-25 14:56:44+00
WALLABADAH,COUNCIL,First Fleet Memorial Garden Wallabadah,,,-31.53822,150.83136,LIVERPOOL PLAINS,NORTHERN REGION,102.1km from Muswellbrook,NEW ENGLAND HIGHWAY,0000009,0840,A1,"0000009,0840,A1",,LEFT,REST AREA,LIGHT VEHICLES ONLY,FALSE,TRUE,FALSE,FALSE,TRUE,TRUE,FALSE,TRUE,BOTH,FALSE,TRUE,FALSE,FALSE,TRUE,TRUE,TRUE,1,FALSE,FALSE,FALSE,FALSE,FALSE,FALSE,FALSE,FALSE,FALSE,RAINWATER TANK,BOTH,44D78E320C49CFCF,2021-10-25 14:56:44+00
HILLVUE,COUNCIL,Truck Driver Memorial - Tamworth,,,-31.1319,150.924,TAMWORTH,NORTHERN REGION,6.5km South of Tamworth,NEW ENGLAND HIGHWAY,0000009,0895,A3,"0000009,0895,A3",,LEFT,REST AREA,HEAVY VEHICLES ONLY,FALSE,FALSE,FALSE,FALSE,FALSE,FALSE,FALSE,FALSE,PRESCRIBED,FALSE,FALSE,FALSE,FALSE,TRUE,FALSE,TRUE,0,FALSE,FALSE,FALSE,FALSE,FALSE,FALSE,FALSE,FALSE,FALSE,NONE,BOTH,475E72B3DC4E3FEF,2021-10-25 14:56:44+00
CULCAIRN,COUNCIL,Jubilee Park,,,-35.672,147.0361,GREATER HUME,SOUTH WEST REGION,49km from Albury and 0km to Culcairn,OLYMPIC HIGHWAY,0000078,0060,A1,"0000078,0060,A1",,LEFT,REST AREA,LIGHT VEHICLES ONLY,FALSE,FALSE,FALSE,FALSE,TRUE,TRUE,FALSE,TRUE,BOTH,TRUE,FALSE,FALSE,FALSE,TRUE,TRUE,TRUE,2,FALSE,FALSE,FALSE,FALSE,FALSE,FALSE,FALSE,FALSE,FALSE,TOWN SUPPLY,BOTH,9B729DD78B65CC9A,2021-10-25 14:56:44+00
GLENBROOK,COUNCIL,Glenbrook Oval,,,-33.76519,150.62338,BLUE MOUNTAINS,SYDNEY PARKLAND ZONE,82km from Lithgow,GREAT WESTERN HWY,0000005,1190,B2,"0000005,1190,B2",,LEFT,PARKING AREA,BOTH LIGHT AND HEAVY VEHICLES,FALSE,FALSE,FALSE,FALSE,FALSE,TRUE,FALSE,FALSE,PRESCRIBED,FALSE,FALSE,FALSE,FALSE,TRUE,FALSE,FALSE,0,FALSE,FALSE,FALSE,FALSE,FALSE,FALSE,FALSE,FALSE,FALSE,NONE,,7C1C134CF0255230,2021-10-25 14:56:44+00
LINDEN,RMS,,,,-33.71231,150.52081,BLUE MOUNTAINS,SYDNEY PARKLAND ZONE,64.5km from Lithgow,GREAT WESTERN HIGHWAY,0000005,1300,A4,"0000005,1300,A4",,LEFT,INSPECTION BAY,HEAVY VEHICLES ONLY,FALSE,FALSE,FALSE,FALSE,FALSE,FALSE,FALSE,FALSE,BOTH,FALSE,FALSE,FALSE,FALSE,TRUE,FALSE,FALSE,0,FALSE,FALSE,FALSE,FALSE,FALSE,FALSE,FALSE,FALSE,FALSE,NONE,BOTH,085B2C8E9F367FAF,2021-10-25 14:56:44+00
WENTWORTH FALLS,COUNCIL,Kedumba Park,,,-33.7098,150.35481,BLUE MOUNTAINS,SYDNEY PARKLAND ZONE,44.8km from Lithgow,GREAT WESTERN HWY,0000005,1398,C1,"0000005,1398,C1",,RIGHT,REST AREA,BOTH LIGHT AND HEAVY VEHICLES,FALSE,FALSE,FALSE,FALSE,FALSE,TRUE,FALSE,FALSE,COUNTER,FALSE,FALSE,FALSE,FALSE,TRUE,FALSE,TRUE,4,FALSE,FALSE,FALSE,FALSE,FALSE,FALSE,FALSE,FALSE,FALSE,TOWN SUPPLY,,D674F566D61F80C6,2021-10-25 14:56:44+00
BLACKHEATH,RMS,Mt. Boyce,,,-33.60723,150.27036,BLUE MOUNTAINS,SYDNEY PARKLAND ZONE,25.19km from Lithgow,GREAT WESTERN HWY,0000005,1515,C1,"0000005,1515,C1",,RIGHT,REST AREA,BOTH LIGHT AND HEAVY VEHICLES,FALSE,FALSE,FALSE,FALSE,FALSE,FALSE,FALSE,FALSE,COUNTER,TRUE,FALSE,FALSE,FALSE,TRUE,FALSE,FALSE,2,FALSE,FALSE,FALSE,FALSE,FALSE,FALSE,FALSE,FALSE,FALSE,NONE,,54799F6627C3DCBF,2021-10-25 14:56:44+00
MURRURUNDI,RMS,Liverpool Range Rest Area,NULL,OPEN,-31.7407,150.79761,LIVERPOOL PLAINS,HUNTER REGION,85km from Tamworth,NEW ENGLAND HIGHWAY,0000009,0782,C1,"0000009,0782,C1",PHYSICAL SEPARATION,RIGHT,REST AREA,LIGHT VEHICLES ONLY,FALSE,FALSE,FALSE,FALSE,FALSE,TRUE,FALSE,TRUE,COUNTER,FALSE,FALSE,TRUE,FALSE,TRUE,FALSE,TRUE,0,FALSE,FALSE,FALSE,FALSE,FALSE,FALSE,FALSE,FALSE,FALSE,NONE,,AA781FD5A8A55268,2021-10-25 14:56:44+00
ARDGLEN,RMS,Nowlands Gap Truck Parking Area S/B,NULL,OPEN,-31.73819,150.79206,LIVERPOOL PLAINS,HUNTER REGION,85km from Tamworth,NEW ENGLAND HIGHWAY,0000009,0782,C1,"0000009,0782,C1",PHYSICAL SEPARATION,RIGHT,PARKING AREA,HEAVY VEHICLES ONLY,FALSE,FALSE,FALSE,FALSE,FALSE,TRUE,FALSE,TRUE,COUNTER,FALSE,FALSE,FALSE,FALSE,TRUE,FALSE,FALSE,0,FALSE,FALSE,FALSE,FALSE,FALSE,FALSE,FALSE,FALSE,FALSE,NONE,,2092D6222CEC6D98,2021-10-25 14:56:44+00
MUSWELLBROOK,COUNCIL,Vietnam Memorial Park,NULL,OPEN,-32.24763,150.89627,MUSWELLBROOK,HUNTER REGION,2km from Muswellbrook,NEW ENGLAND HIGHWAY,0000009,0620,A1,"0000009,0620,A1",PHYSICAL SEPARATION,RIGHT,REST AREA,LIGHT VEHICLES ONLY,FALSE,FALSE,FALSE,FALSE,FALSE,TRUE,FALSE,TRUE,BOTH,TRUE,FALSE,TRUE,FALSE,TRUE,FALSE,TRUE,2,FALSE,FALSE,FALSE,FALSE,FALSE,FALSE,FALSE,FALSE,TRUE,TOWN SUPPLY,BOTH,FA17B80083BDC86A,2021-10-25 14:56:44+00
ARDGLEN,RMS,Nowlands Gap Truck Parking Area N/B,NULL,OPEN,-31.74004,150.79431,LIVERPOOL PLAINS,HUNTER REGION,70km from Muswellbrook,NEW ENGLAND HIGHWAY,0000009,0782,B1,"0000009,0782,B1",PHYSICAL SEPARATION,LEFT,PARKING AREA,HEAVY VEHICLES ONLY,FALSE,FALSE,FALSE,FALSE,FALSE,TRUE,FALSE,TRUE,PRESCRIBED,FALSE,FALSE,FALSE,FALSE,TRUE,FALSE,FALSE,0,FALSE,FALSE,FALSE,FALSE,FALSE,FALSE,FALSE,FALSE,FALSE,NONE,,7B2F7FAFA70D392E,2021-10-25 14:56:44+00
GUNGAL,RMS,Gungal Rest Area,NULL,OPEN,-32.27387,150.50202,MUSWELLBROOK,HUNTER REGION,27.0km from Denman,GOLDEN HIGHWAY,0000027,0200,A1,"0000027,0200,A1",PHYSICAL SEPARATION,RIGHT,REST AREA,LIGHT VEHICLES ONLY,FALSE,TRUE,FALSE,FALSE,FALSE,TRUE,FALSE,TRUE,BOTH,TRUE,TRUE,TRUE,FALSE,TRUE,FALSE,TRUE,1,FALSE,FALSE,FALSE,FALSE,FALSE,FALSE,FALSE,FALSE,TRUE,RAINWATER TANK,BOTH,E776AB03B4DEB034,2021-10-25 14:56:44+00
CASSILIS,RMS,Cassilis Park Rest Area,NULL,OPEN,-32.05358,149.93362,UPPER HUNTER,HUNTER REGION,47.7km from Merriwa,GOLDEN HIGHWAY,0000027,0280,A1,"0000027,0280,A1",PHYSICAL SEPARATION,LEFT,REST AREA,BOTH LIGHT AND HEAVY VEHICLES,FALSE,TRUE,FALSE,FALSE,FALSE,TRUE,FALSE,TRUE,BOTH,TRUE,TRUE,FALSE,FALSE,TRUE,FALSE,TRUE,3,FALSE,FALSE,FALSE,FALSE,FALSE,FALSE,FALSE,FALSE,TRUE,RAINWATER TANK,BOTH,ADE9798BE4801B5C,2021-10-25 14:56:44+00
ARMIDALE,RMS,North Roundabout - Armidale,,,-30.48913,151.67448,ARMIDALE REGIONAL,NORTHERN REGION,7.4km North of Armidale,NEW ENGLAND HIGHWAY,0000009,1215,A1,"0000009,1215,A1",,LEFT,INSPECTION BAY,HEAVY VEHICLES ONLY,FALSE,FALSE,FALSE,FALSE,FALSE,TRUE,FALSE,FALSE,PRESCRIBED,TRUE,FALSE,FALSE,FALSE,TRUE,FALSE,FALSE,0,FALSE,FALSE,FALSE,FALSE,FALSE,FALSE,FALSE,FALSE,FALSE,NONE,,F46CD95A67A13560,2021-10-25 14:56:44+00
GLEN INNES,RMS,Celtic Country - Redbank,,OPEN,-29.78722,151.73195,SEVERN,NORTHERN REGION,95.8km North of Armidale,NEW ENGLAND HIGHWAY,0000009,1350,A3,"0000009,1350,A3",PHYSICAL SEPARATION,RIGHT,REST AREA,BOTH LIGHT AND HEAVY VEHICLES,FALSE,FALSE,FALSE,FALSE,FALSE,TRUE,FALSE,TRUE,COUNTER,FALSE,FALSE,FALSE,FALSE,TRUE,FALSE,TRUE,1,FALSE,FALSE,FALSE,FALSE,FALSE,FALSE,FALSE,FALSE,FALSE,RAINWATER TANK,,F44E169A50396B7B,2021-10-25 14:56:44+00
YARROWFORD,COUNCIL,Heritage Park (Bank of Beardy Ck),,,-29.66293,151.77645,SEVERN,NORTHERN REGION,9km North of Glen Innes,NEW ENGLAND HIGHWAY,0000009,1400,A1,"0000009,1400,A1",,LEFT,REST AREA,BOTH LIGHT AND HEAVY VEHICLES,FALSE,FALSE,FALSE,FALSE,FALSE,TRUE,FALSE,FALSE,BOTH,FALSE,FALSE,FALSE,FALSE,TRUE,FALSE,TRUE,1,FALSE,FALSE,FALSE,FALSE,FALSE,FALSE,FALSE,FALSE,FALSE,RAINWATER TANK,BOTH,F62CABC314E426AB,2021-10-25 14:56:44+00
TENTERFIELD,OTHER,Market Square Park,,,-29.0539,152.024,TENTERFIELD,NORTHERN REGION,126.5km West of Casino,CLARENCE STREET,0000016,0460,A1,"0000016,0460,A1",,LEFT,REST AREA,BOTH LIGHT AND HEAVY VEHICLES,FALSE,TRUE,FALSE,FALSE,FALSE,TRUE,FALSE,FALSE,BOTH,TRUE,TRUE,FALSE,FALSE,TRUE,FALSE,TRUE,2,FALSE,FALSE,FALSE,FALSE,FALSE,FALSE,FALSE,FALSE,FALSE,RAINWATER TANK,BOTH,BD7E19ECF8F4F594,2021-10-25 14:56:44+00
CASINO,COUNCIL,Lions Coronation Park - Casino,,,-28.8691,153.04401,RICHMOND VALLEY,NORTHERN REGION,1km South Casino,CENTRE STREET,0000016,0270,A1,"0000016,0270,A1",,RIGHT,REST AREA,LIGHT VEHICLES ONLY,FALSE,TRUE,FALSE,FALSE,TRUE,TRUE,FALSE,FALSE,BOTH,FALSE,TRUE,FALSE,FALSE,TRUE,FALSE,TRUE,2,FALSE,FALSE,FALSE,FALSE,FALSE,FALSE,FALSE,FALSE,FALSE,TOWN SUPPLY,BOTH,0F287068D8F8CF15,2021-10-25 14:56:44+00
RAMORNIE,RMS,Ramornie  Orara River - Tindal Bridge,,OPEN,-29.65221,152.79973,CLARENCE VALLEY,NORTHERN REGION,15.6km West of Grafton,GWYDIR HIGHWAY,0000012,0150,A1,"0000012,0150,A1",PHYSICAL SEPARATION,LEFT,REST AREA,LIGHT VEHICLES ONLY,FALSE,FALSE,FALSE,FALSE,FALSE,TRUE,FALSE,FALSE,BOTH,FALSE,FALSE,FALSE,FALSE,TRUE,FALSE,TRUE,0,FALSE,FALSE,FALSE,FALSE,FALSE,FALSE,FALSE,FALSE,FALSE,NONE,BOTH,25A490EAF503366C,2021-10-25 14:56:44+00
TENTERFIELD,RMS,Tenterfield Creek,,,-29.0689,152.01401,TENTERFIELD,NORTHERN REGION,89km North of Glen Innes,NEW ENGLAND HIGHWAY,0000009,1480,A1,"0000009,1480,A1",,RIGHT,REST AREA,LIGHT VEHICLES ONLY,FALSE,TRUE,FALSE,FALSE,FALSE,TRUE,FALSE,FALSE,BOTH,FALSE,TRUE,FALSE,FALSE,TRUE,FALSE,TRUE,0,FALSE,FALSE,FALSE,FALSE,FALSE,FALSE,FALSE,FALSE,FALSE,RAINWATER TANK,BOTH,D46D78098B1237E9,2021-10-25 14:56:44+00
MANTON,RMS,Manton Ridge,Y,OPEN,-34.83207,148.98542,YASS VALLEY,SOUTH WEST REGION,74km from Goulburn and  15km to Yass,HUME HIGHWAY,0000002,1552,C2,"0000002,1552,C2",PHYSICAL SEPARATION,RIGHT,PARKING AREA,HEAVY VEHICLES ONLY,FALSE,FALSE,FALSE,FALSE,FALSE,TRUE,FALSE,FALSE,COUNTER,FALSE,FALSE,FALSE,FALSE,TRUE,FALSE,FALSE,0,FALSE,FALSE,FALSE,FALSE,FALSE,FALSE,FALSE,FALSE,FALSE,NONE,,A585BF5913F0B766,2021-10-25 14:56:44+00
BOWNING,RMS,Derringullen Creek,Y,,-34.79436,148.8687,YASS VALLEY,SOUTH WEST REGION,87km from Goulburn and 7km to Yass,HUME HIGHWAY,0000002,1582,B1,"0000002,1582,B1",PHYSICAL SEPARATION,LEFT,REST AREA,LIGHT VEHICLES ONLY,FALSE,FALSE,FALSE,FALSE,FALSE,TRUE,FALSE,FALSE,PRESCRIBED,FALSE,FALSE,FALSE,FALSE,TRUE,FALSE,TRUE,0,FALSE,FALSE,FALSE,FALSE,FALSE,FALSE,FALSE,FALSE,FALSE,NONE,,009B1EAB735D5CB2,2021-10-25 14:56:44+00
BOWNING,RMS,McGarths (One Tree),Y,,-34.77867,148.84143,YASS VALLEY,SOUTH WEST REGION,10km from Yass and  91km to Gundagai,HUME HIGHWAY,0000002,1610,C2,"0000002,1610,C2",PHYSICAL SEPARATION,RIGHT,PARKING AREA,BOTH LIGHT AND HEAVY VEHICLES,FALSE,FALSE,FALSE,FALSE,FALSE,TRUE,FALSE,FALSE,COUNTER,FALSE,FALSE,FALSE,FALSE,TRUE,FALSE,FALSE,0,FALSE,FALSE,FALSE,FALSE,FALSE,FALSE,FALSE,FALSE,FALSE,NONE,,0BDB6F1251A6A9B1,2021-10-25 14:56:44+00
BOWNING,RMS,Two Mile,Y,,-34.76655,148.76321,YASS VALLEY,SOUTH WEST REGION,18km from Yass and  83km to Gundagai,HUME HIGHWAY,0000002,1621,B4,"0000002,1621,B4",PHYSICAL SEPARATION,LEFT,PARKING AREA,HEAVY VEHICLES ONLY,FALSE,FALSE,FALSE,FALSE,FALSE,TRUE,FALSE,FALSE,PRESCRIBED,FALSE,FALSE,FALSE,FALSE,TRUE,FALSE,FALSE,0,FALSE,FALSE,FALSE,FALSE,FALSE,FALSE,FALSE,FALSE,FALSE,NONE,,0A5F8728A24E71DE,2021-10-25 14:56:44+00
BOWNING,RMS,Conroys Gap,Y,,-34.77689,148.72532,YASS VALLEY,SOUTH WEST REGION,22km from Yass and  80km to Gundagai,HUME HIGHWAY,0000002,1640,B1,"0000002,1640,B1",PHYSICAL SEPARATION,LEFT,PARKING AREA,HEAVY VEHICLES ONLY,FALSE,FALSE,FALSE,FALSE,FALSE,TRUE,FALSE,FALSE,PRESCRIBED,FALSE,FALSE,FALSE,FALSE,TRUE,FALSE,FALSE,0,FALSE,FALSE,FALSE,FALSE,FALSE,FALSE,FALSE,FALSE,FALSE,NONE,,F3EFD0021D6638C1,2021-10-25 14:56:44+00
BOWNING,RMS,Conroys Gap,N,OPEN,-34.77524,148.73393,YASS VALLEY,SOUTH WEST REGION,21km from Yass and  81km to Gundagai,HUME HIGHWAY,0000002,1640,C1,"0000002,1640,C1",PHYSICAL SEPARATION,RIGHT,PARKING AREA,HEAVY VEHICLES ONLY,FALSE,FALSE,FALSE,FALSE,FALSE,TRUE,FALSE,FALSE,COUNTER,FALSE,FALSE,FALSE,FALSE,TRUE,FALSE,FALSE,0,FALSE,FALSE,FALSE,FALSE,FALSE,FALSE,FALSE,FALSE,FALSE,NONE,,D6E855CC2162E117,2021-10-25 14:56:44+00
BERREMANGRA,RMS,Gowlands,Y,,-34.8052,148.56402,HILLTOPS,SOUTH WEST REGION,40km from Yass and  62km to Gundagai,HUME HIGHWAY,0000002,1723,B1,"0000002,1723,B1",MAIN CARRIAGEWAY,LEFT,PARKING AREA,HEAVY VEHICLES ONLY,FALSE,FALSE,FALSE,FALSE,FALSE,TRUE,FALSE,TRUE,PRESCRIBED,FALSE,FALSE,FALSE,FALSE,TRUE,FALSE,FALSE,0,FALSE,FALSE,FALSE,FALSE,FALSE,FALSE,FALSE,FALSE,FALSE,NONE,,DCD338632CC5D7A6,2021-10-25 14:56:44+00
BOOKHAM,RMS,Connor's Creek,Y,,-34.8104,148.62157,HILLTOPS,SOUTH WEST REGION,34km from Yass and  67km to Gundagai,HUME HIGHWAY,0000002,1723,C1,"0000002,1723,C1",MAIN CARRIAGEWAY,RIGHT,PARKING AREA,HEAVY VEHICLES ONLY,FALSE,FALSE,FALSE,FALSE,FALSE,TRUE,FALSE,FALSE,COUNTER,FALSE,FALSE,FALSE,FALSE,TRUE,FALSE,FALSE,0,FALSE,FALSE,FALSE,FALSE,FALSE,FALSE,FALSE,FALSE,FALSE,NONE,,EA8A1B6CC0046650,2021-10-25 14:56:44+00
JUGIONG,RMS,Jugiong Hill,Y,,-34.82787,148.31229,HILLTOPS,SOUTH WEST REGION,64km from Yass and  38km to Gundagai,HUME HIGHWAY,0000002,1741,C2,"0000002,1741,C2",PHYSICAL SEPARATION,RIGHT,PARKING AREA,BOTH LIGHT AND HEAVY VEHICLES,FALSE,TRUE,FALSE,FALSE,FALSE,TRUE,FALSE,FALSE,COUNTER,FALSE,TRUE,FALSE,FALSE,TRUE,FALSE,TRUE,0,FALSE,FALSE,FALSE,FALSE,FALSE,FALSE,FALSE,FALSE,FALSE,NONE,,5E4586D23727821E,2021-10-25 14:56:44+00
BERREMANGRA,RMS,Reedy Creek,Y,,-34.80632,148.47291,HILLTOPS,SOUTH WEST REGION,48km from Yass and  53km to Gundagai,HUME HIGHWAY,0000002,1732,B1,"0000002,1732,B1",MAIN CARRIAGEWAY,LEFT,PARKING AREA,HEAVY VEHICLES ONLY,FALSE,FALSE,FALSE,FALSE,FALSE,TRUE,FALSE,TRUE,PRESCRIBED,FALSE,FALSE,FALSE,FALSE,TRUE,FALSE,FALSE,0,FALSE,FALSE,FALSE,FALSE,FALSE,FALSE,FALSE,FALSE,FALSE,NONE,,1EC047D1EDCB8FAA,2021-10-25 14:56:44+00
COOLAC,RMS,Mungi Mungi Hill,Y,,-34.88868,148.21829,COOTAMUNDRA-GUNDAGAI REGIONAL,SOUTH WEST REGION,76km from Yass and  26km to Gundagai,HUME HIGHWAY-NTH COOLAC INTERCHANGE,0000002,1745,B4,"0000002,1745,B4",PHYSICAL SEPARATION,LEFT,PARKING AREA,HEAVY VEHICLES ONLY,FALSE,FALSE,FALSE,FALSE,FALSE,TRUE,FALSE,TRUE,PRESCRIBED,FALSE,FALSE,FALSE,FALSE,TRUE,FALSE,FALSE,0,FALSE,FALSE,FALSE,FALSE,FALSE,FALSE,FALSE,FALSE,FALSE,NONE,,A74E06414B8D5DD7,2021-10-25 14:56:44+00
COOLAC,RMS,Black Springs,Y,OPEN,-34.88182,148.23144,COOTAMUNDRA-GUNDAGAI REGIONAL,SOUTH WEST REGION,74km from Yass and  27km to Gundagai,HUME HIGHWAY-NTH COOLAC INTERCHANGE,0000002,1745,C4,"0000002,1745,C4",PHYSICAL SEPARATION,RIGHT,PARKING AREA,HEAVY VEHICLES ONLY,FALSE,FALSE,FALSE,FALSE,FALSE,TRUE,FALSE,FALSE,COUNTER,FALSE,FALSE,FALSE,FALSE,TRUE,FALSE,FALSE,0,FALSE,FALSE,FALSE,FALSE,FALSE,FALSE,FALSE,FALSE,FALSE,NONE,,D816F60B90E29CFC,2021-10-25 14:56:44+00
GUNDAGAI,RMS,Four Mile Hill,Y,,-35.01934,148.11027,COOTAMUNDRA-GUNDAGAI REGIONAL,SOUTH WEST REGION,95km from Yass and  6km to Gundagai,HUME HIGHWAY-NTH GUNDAGAI,0000002,1832,B1,"0000002,1832,B1",MAIN CARRIAGEWAY,LEFT,PARKING AREA,HEAVY VEHICLES ONLY,FALSE,FALSE,FALSE,FALSE,FALSE,TRUE,FALSE,TRUE,PRESCRIBED,FALSE,FALSE,FALSE,FALSE,TRUE,FALSE,FALSE,0,FALSE,FALSE,FALSE,FALSE,FALSE,FALSE,FALSE,FALSE,FALSE,NONE,,47623499451D76DB,2021-10-25 14:56:44+00
TUMBLONG,RMS,Tumblong,,,-35.13617,148.00928,COOTAMUNDRA-GUNDAGAI REGIONAL,SOUTH WEST REGION,12km from Gundagai and 168km to Albury,HUME HIGHWAY,0000002,1945,B2,"0000002,1945,B2",,LEFT,REST AREA,LIGHT VEHICLES ONLY,FALSE,FALSE,FALSE,FALSE,FALSE,TRUE,FALSE,TRUE,PRESCRIBED,TRUE,FALSE,FALSE,FALSE,TRUE,FALSE,FALSE,2,FALSE,FALSE,FALSE,FALSE,FALSE,FALSE,FALSE,FALSE,FALSE,NONE,,488D2AF9A6068F1D,2021-10-25 14:56:44+00
SOUTH GUNDAGAI,RMS,Big Ben Creek,Y,OPEN,-35.10904,148.05511,COOTAMUNDRA-GUNDAGAI REGIONAL,SOUTH WEST REGION,6km from Gundagai and 173km to Albury,HUME HIGHWAY,0000002,1945,C2,"0000002,1945,C2",MAIN CARRIAGEWAY,RIGHT,PARKING AREA,HEAVY VEHICLES ONLY,FALSE,FALSE,FALSE,FALSE,FALSE,TRUE,FALSE,FALSE,COUNTER,FALSE,FALSE,FALSE,FALSE,TRUE,FALSE,FALSE,0,FALSE,FALSE,FALSE,FALSE,FALSE,FALSE,FALSE,FALSE,FALSE,NONE,,C54606C0972718CF,2021-10-25 14:56:44+00
TUMBLONG,RMS,Bereena,Y,OPEN,-35.12167,148.02293,COOTAMUNDRA-GUNDAGAI REGIONAL,SOUTH WEST REGION,10km from Gundagai and 170km to Albury,HUME HIGHWAY,0000002,1945,C2,"0000002,1945,C2",MAIN CARRIAGEWAY,RIGHT,PARKING AREA,BOTH LIGHT AND HEAVY VEHICLES,FALSE,FALSE,FALSE,FALSE,FALSE,TRUE,FALSE,FALSE,COUNTER,FALSE,FALSE,FALSE,FALSE,TRUE,FALSE,FALSE,0,FALSE,FALSE,FALSE,FALSE,FALSE,FALSE,FALSE,FALSE,FALSE,NONE,,60E23A501AD2E6E2,2021-10-25 14:56:44+00
TUMBLONG,RMS,Yellow Creek,Y,OPEN,-35.14302,147.96237,COOTAMUNDRA-GUNDAGAI REGIONAL,SOUTH WEST REGION,16km from Gundagai and 164km to Albury,HUME HIGHWAY,0000002,1951,C2,"0000002,1951,C2",MAIN CARRIAGEWAY,RIGHT,PARKING AREA,HEAVY VEHICLES ONLY,FALSE,TRUE,FALSE,FALSE,FALSE,TRUE,FALSE,FALSE,COUNTER,FALSE,TRUE,FALSE,FALSE,TRUE,FALSE,FALSE,0,FALSE,FALSE,FALSE,FALSE,FALSE,FALSE,FALSE,FALSE,FALSE,NONE,,B80AB79FDA9AFCC1,2021-10-25 14:56:44+00
MUNDARLO,RMS,Deltroit,,,-35.17961,147.82624,COOTAMUNDRA-GUNDAGAI REGIONAL,SOUTH WEST REGION,30km from Gundagai and 149km to Albury,HUME HIGHWAY,0000002,1981,B2,"0000002,1981,B2",,LEFT,PARKING AREA,HEAVY VEHICLES ONLY,FALSE,FALSE,FALSE,FALSE,FALSE,TRUE,TRUE,TRUE,PRESCRIBED,FALSE,FALSE,FALSE,FALSE,TRUE,FALSE,FALSE,0,FALSE,FALSE,FALSE,FALSE,FALSE,FALSE,FALSE,FALSE,FALSE,NONE,,DFEB498937A5A118,2021-10-25 14:56:44+00
MOUNT ADRAH,RMS,Wagga Hill,Y,OPEN,-35.20986,147.81276,COOTAMUNDRA-GUNDAGAI REGIONAL,SOUTH WEST REGION,34km from Gundagai and 146km to Albury,HUME HIGHWAY,0000002,1981,C2,"0000002,1981,C2",PHYSICAL SEPARATION,RIGHT,PARKING AREA,HEAVY VEHICLES ONLY,FALSE,FALSE,FALSE,FALSE,FALSE,TRUE,FALSE,FALSE,COUNTER,FALSE,FALSE,FALSE,FALSE,TRUE,FALSE,FALSE,0,FALSE,FALSE,FALSE,FALSE,FALSE,FALSE,FALSE,FALSE,FALSE,NONE,,7279F49E869934FD,2021-10-25 14:56:44+00
TARCUTTA,RMS,,Y,,-35.3373,147.64716,WAGGA WAGGA,SOUTH WEST REGION,56km from Gundagai and 124km to Albury,HUME HIGHWAY,0000002,2055,B1,"0000002,2055,B1",PHYSICAL SEPARATION,LEFT,PARKING AREA,HEAVY VEHICLES ONLY,FALSE,FALSE,FALSE,FALSE,FALSE,TRUE,FALSE,FALSE,PRESCRIBED,FALSE,FALSE,FALSE,FALSE,TRUE,FALSE,FALSE,0,FALSE,FALSE,FALSE,FALSE,FALSE,FALSE,FALSE,FALSE,FALSE,NONE,,6B1D6DE2D5A76EE1,2021-10-25 14:56:44+00
TARCUTTA,RMS,,Y,,-35.35381,147.6518,WAGGA WAGGA,SOUTH WEST REGION,58km from Gundagai and 122km to Albury,HUME HIGHWAY,0000002,2055,B1,"0000002,2055,B1",PHYSICAL SEPARATION,LEFT,REST AREA,LIGHT VEHICLES ONLY,FALSE,TRUE,FALSE,FALSE,FALSE,TRUE,FALSE,FALSE,PRESCRIBED,FALSE,TRUE,FALSE,FALSE,TRUE,FALSE,TRUE,0,FALSE,FALSE,FALSE,FALSE,FALSE,FALSE,FALSE,FALSE,FALSE,WATER TRUCK,,721567316E73BFED,2021-10-25 14:56:44+00
BARRABA,COUNCIL,Barraba Omeara Park,,,-30.3887,150.61,TAMWORTH,NORTHERN REGION,44.1km North of Tamworth,TAMWORTH-YETMAN RD,0000063,0185,A1,"0000063,0185,A1",,RIGHT,REST AREA,LIGHT VEHICLES ONLY,FALSE,FALSE,FALSE,FALSE,TRUE,FALSE,FALSE,FALSE,BOTH,FALSE,FALSE,FALSE,FALSE,TRUE,TRUE,TRUE,2,FALSE,FALSE,FALSE,FALSE,FALSE,FALSE,FALSE,FALSE,FALSE,RAINWATER TANK,BOTH,BF152BD4BA3F56E7,2021-10-25 14:56:44+00
WARIALDA,COUNCIL,Warialda Apex Park,,,-29.54299,150.56866,GWYDIR,NORTHERN REGION,0.7km West of Warialda,MOREE ROAD,0000012,0550,A1,"0000012,0550,A1",,LEFT,REST AREA,BOTH LIGHT AND HEAVY VEHICLES,FALSE,FALSE,FALSE,FALSE,TRUE,TRUE,FALSE,FALSE,BOTH,FALSE,FALSE,FALSE,FALSE,TRUE,TRUE,TRUE,2,FALSE,FALSE,FALSE,FALSE,FALSE,FALSE,FALSE,FALSE,FALSE,WATER TRUCK,BOTH,A326D1CB525DF383,2021-10-25 14:56:44+00
WARIALDA,COUNCIL,Warialda Saleyards,,,-29.5457,150.582,GWYDIR,NORTHERN REGION,60.3km West of Inverell,GWYDIR HIGHWAY,0000012,0510,A1,"0000012,0510,A1",,RIGHT,REST AREA,LIGHT VEHICLES ONLY,FALSE,FALSE,FALSE,FALSE,FALSE,TRUE,FALSE,FALSE,BOTH,FALSE,FALSE,FALSE,FALSE,TRUE,FALSE,FALSE,2,FALSE,FALSE,FALSE,FALSE,FALSE,FALSE,FALSE,FALSE,FALSE,NONE,BOTH,EACE1DD5385F494A,2021-10-25 14:56:44+00
BARRABA,COUNCIL,Australia Day Park - Barraba,,,-30.37537,150.61136,TAMWORTH,NORTHERN REGION,0.3km North of Barraba,QUEEN STREET,0000063,0205,A1,"0000063,0205,A1",,RIGHT,REST AREA,LIGHT VEHICLES ONLY,FALSE,FALSE,FALSE,FALSE,FALSE,TRUE,FALSE,FALSE,BOTH,FALSE,FALSE,FALSE,FALSE,TRUE,FALSE,TRUE,0,FALSE,FALSE,FALSE,FALSE,FALSE,FALSE,FALSE,FALSE,FALSE,TOWN SUPPLY,BOTH,5518B1BCECAAAA00,2021-10-25 14:56:44+00
FERNBROOK,COUNCIL,Johnson,,,-30.34716,152.65067,BELLINGEN,NORTHERN REGION,6.6km West of Dorrigo (38.6km East of Ebor),WATERFALL WAY,0000076,0120,A1,"0000076,0120,A1",,RIGHT,REST AREA,BOTH LIGHT AND HEAVY VEHICLES,FALSE,FALSE,FALSE,FALSE,FALSE,TRUE,FALSE,FALSE,COUNTER,FALSE,FALSE,FALSE,FALSE,TRUE,FALSE,TRUE,0,FALSE,FALSE,FALSE,FALSE,FALSE,FALSE,FALSE,FALSE,FALSE,NONE,BOTH,8BD87D42A73A0C24,2021-10-25 14:56:44+00
EBOR,NATIONAL PARKS AND WILDLIFE SERVICE,Ebor Falls Lookout,,,-30.4066,152.34565,ARMIDALE REGIONAL,NORTHERN REGION,47.2km West of Dorrigo (1km West of Ebor),WATERFALL WAY,0000076,0175,A1,"0000076,0175,A1",,RIGHT,REST AREA,LIGHT VEHICLES ONLY,FALSE,FALSE,FALSE,FALSE,FALSE,TRUE,FALSE,TRUE,BOTH,FALSE,FALSE,FALSE,FALSE,TRUE,FALSE,TRUE,2,FALSE,TRUE,FALSE,FALSE,FALSE,FALSE,FALSE,FALSE,FALSE,NONE,BOTH,3C5560295F9B3608,2021-10-25 14:56:44+00
EBOR,RMS,Snowy Range,,,-30.42511,152.32438,ARMIDALE REGIONAL,NORTHERN REGION,50.3km West of Dorrigo,WATERFALL WAY,0000076,0180,A2,"0000076,0180,A2",,LEFT,PARKING AREA,BOTH LIGHT AND HEAVY VEHICLES,FALSE,FALSE,FALSE,FALSE,FALSE,TRUE,FALSE,FALSE,BOTH,FALSE,FALSE,FALSE,FALSE,TRUE,FALSE,TRUE,0,FALSE,FALSE,FALSE,FALSE,FALSE,FALSE,FALSE,FALSE,FALSE,NONE,BOTH,A999B2117F466065,2021-10-25 14:56:44+00
WOLLOMOMBI,RMS,Oakey Creek,,OPEN,-30.50027,152.25331,ARMIDALE REGIONAL,NORTHERN REGION,62.3km West of Dorrigo,WATERFALL WAY,0000076,0200,A2,"0000076,0200,A2",PHYSICAL SEPARATION,LEFT,REST AREA,LIGHT VEHICLES ONLY,FALSE,FALSE,FALSE,FALSE,FALSE,TRUE,FALSE,FALSE,BOTH,FALSE,FALSE,FALSE,FALSE,TRUE,FALSE,TRUE,0,FALSE,FALSE,FALSE,FALSE,FALSE,FALSE,FALSE,FALSE,FALSE,NONE,BOTH,D72A0E6F7FEA780E,2021-10-25 14:56:44+00
WOLLOMOMBI,RMS,Dingo Fence,,OPEN,-30.50249,152.14524,ARMIDALE REGIONAL,NORTHERN REGION,74.1km West of Dorrigo,WATERFALL WAY,0000076,0210,A1,"0000076,0210,A1",PHYSICAL SEPARATION,LEFT,REST AREA,LIGHT VEHICLES ONLY,FALSE,FALSE,FALSE,FALSE,FALSE,TRUE,FALSE,FALSE,BOTH,FALSE,FALSE,FALSE,FALSE,TRUE,FALSE,FALSE,0,FALSE,FALSE,FALSE,FALSE,FALSE,FALSE,FALSE,FALSE,FALSE,NONE,BOTH,5ACEDD3A9099A7DD,2021-10-25 14:56:44+00
METZ,RMS,Gara River,,OPEN,-30.5441,151.79453,ARMIDALE REGIONAL,NORTHERN REGION,110.9km West of Dorrigo,WATERFALL WAY,0000076,0280,A2,"0000076,0280,A2",PHYSICAL SEPARATION,RIGHT,REST AREA,LIGHT VEHICLES ONLY,FALSE,FALSE,FALSE,FALSE,FALSE,TRUE,FALSE,FALSE,BOTH,FALSE,FALSE,FALSE,FALSE,TRUE,FALSE,TRUE,1,FALSE,FALSE,FALSE,FALSE,FALSE,FALSE,FALSE,FALSE,FALSE,NONE,BOTH,FA0A6F494E427DC6,2021-10-25 14:56:44+00
DORRIGO,COUNCIL,Dorrigo Bielsdown River,,,-30.3398,152.709,BELLINGEN,NORTHERN REGION,0.2km West of Dorrigo,CUDGERY STREET,0000076,0100,A1,"0000076,0100,A1",,LEFT,REST AREA,LIGHT VEHICLES ONLY,FALSE,FALSE,FALSE,FALSE,TRUE,TRUE,FALSE,FALSE,BOTH,FALSE,FALSE,FALSE,FALSE,TRUE,FALSE,TRUE,2,FALSE,FALSE,FALSE,FALSE,FALSE,FALSE,FALSE,FALSE,FALSE,NONE,BOTH,E9A7391DAD62BEA2,2021-10-25 14:56:44+00
WHIPORIE,RMS,Whiporie,,OPEN,-29.30864,152.99695,RICHMOND VALLEY,NORTHERN REGION,50.7km North of Grafton,SUMMERLAND WAY,0000083,0170,A2,"0000083,0170,A2",MAIN CARRIAGEWAY,RIGHT,REST AREA,BOTH LIGHT AND HEAVY VEHICLES,FALSE,FALSE,FALSE,FALSE,FALSE,TRUE,FALSE,FALSE,BOTH,FALSE,FALSE,FALSE,FALSE,TRUE,FALSE,FALSE,1,FALSE,FALSE,FALSE,FALSE,FALSE,FALSE,FALSE,FALSE,FALSE,RAINWATER TANK,BOTH,75FA4AB1B7D3858E,2021-10-25 14:56:44+00
ELLANGOWAN,RMS,Braemar Park,,OPEN,-29.08809,153.00179,RICHMOND VALLEY,NORTHERN REGION,75.8km North of Grafton,SUMMERLAND WAY,0000083,0190,A4,"0000083,0190,A4",PHYSICAL SEPARATION,RIGHT,REST AREA,LIGHT VEHICLES ONLY,FALSE,TRUE,FALSE,FALSE,FALSE,TRUE,FALSE,FALSE,BOTH,FALSE,TRUE,FALSE,FALSE,TRUE,FALSE,TRUE,1,FALSE,FALSE,FALSE,FALSE,FALSE,FALSE,FALSE,FALSE,FALSE,RAINWATER TANK,BOTH,4E0CA5AD9E1D761D,2021-10-25 14:56:44+00
WIANGAREE,COUNCIL,Wiangaree Town Rest Area,,,-28.5063,152.967,KYOGLE,NORTHERN REGION,14.1km North of Kyogle,SUMMERLAND WAY,0000083,0410,A6,"0000083,0410,A6",,LEFT,REST AREA,BOTH LIGHT AND HEAVY VEHICLES,FALSE,FALSE,FALSE,FALSE,FALSE,TRUE,FALSE,FALSE,BOTH,FALSE,FALSE,FALSE,FALSE,TRUE,FALSE,TRUE,0,FALSE,FALSE,FALSE,FALSE,FALSE,FALSE,FALSE,FALSE,FALSE,NONE,BOTH,D14A0D7AF900EE68,2021-10-25 14:56:44+00
TENTERFIELD,COUNCIL,Rotary Park - Tenterfield,,,-29.04633,152.02049,TENTERFIELD,NORTHERN REGION,1.0km North of Tenterfield,ROUSE ST,0000009,1500,A1,"0000009,1500,A1",,LEFT,REST AREA,LIGHT VEHICLES ONLY,FALSE,TRUE,FALSE,FALSE,TRUE,TRUE,FALSE,FALSE,BOTH,TRUE,TRUE,FALSE,FALSE,TRUE,TRUE,TRUE,4,FALSE,FALSE,FALSE,FALSE,FALSE,FALSE,FALSE,FALSE,FALSE,RAINWATER TANK,BOTH,A3BDB2F11C9FADB7,2021-10-25 14:56:44+00
NEW PARK,COUNCIL,Kyogle Apex Park,,,-28.6166,153.002,KYOGLE,NORTHERN REGION,0.2km North of Kyogle,SUMMERLAND WAY,0000083,0399,A1,"0000083,0399,A1",,LEFT,REST AREA,LIGHT VEHICLES ONLY,FALSE,FALSE,FALSE,FALSE,TRUE,TRUE,FALSE,TRUE,BOTH,TRUE,FALSE,FALSE,FALSE,TRUE,TRUE,TRUE,0,FALSE,FALSE,FALSE,FALSE,FALSE,FALSE,FALSE,FALSE,FALSE,NONE,BOTH,F2EE93B7BB43762F,2021-10-25 14:56:44+00
COFFS HARBOUR,OTHER,South Coffs Harbour Service Centre,,,-30.3188,153.09,COFFS HARBOUR,NORTHERN REGION,106.78km North of Kempsey,PACIFIC HIGHWAY,0000010,2490,B1,"0000010,2490,B1",,LEFT,HIGHWAY SERVICE CENTRE,BOTH LIGHT AND HEAVY VEHICLES,FALSE,FALSE,FALSE,FALSE,FALSE,FALSE,FALSE,FALSE,PRESCRIBED,FALSE,FALSE,FALSE,FALSE,TRUE,FALSE,FALSE,1,FALSE,FALSE,FALSE,FALSE,FALSE,FALSE,FALSE,FALSE,FALSE,NONE,,5B5A2FF20C6AE6EC,2021-10-25 14:56:44+00
COFFS HARBOUR,COUNCIL,Coffs Harbour Moonee Street Tourist Park,,,-30.2999,153.11099,COFFS HARBOUR,NORTHERN REGION,110.17km North of Kempsey,GRAFTON STREET,0000010,2500,A1,"0000010,2500,A1",,LEFT,REST AREA,LIGHT VEHICLES ONLY,FALSE,FALSE,FALSE,FALSE,FALSE,TRUE,TRUE,TRUE,PRESCRIBED,TRUE,FALSE,FALSE,FALSE,TRUE,FALSE,TRUE,4,FALSE,FALSE,FALSE,FALSE,FALSE,FALSE,FALSE,FALSE,FALSE,TOWN SUPPLY,,EDC567999AD7E41F,2021-10-25 14:56:44+00
BLACKHEATH,COUNCIL,Neates Park,,,-33.63709,150.28501,BLUE MOUNTAINS,SYDNEY PARKLAND ZONE,29.1km from Lithgow,GREAT WESTERN HWY,0000005,1490,A1,"0000005,1490,A1",,LEFT,REST AREA,BOTH LIGHT AND HEAVY VEHICLES,FALSE,FALSE,FALSE,FALSE,FALSE,TRUE,FALSE,FALSE,BOTH,FALSE,FALSE,FALSE,FALSE,TRUE,FALSE,FALSE,0,FALSE,FALSE,FALSE,FALSE,FALSE,FALSE,FALSE,FALSE,FALSE,NONE,BOTH,AF5CF7E0C8CF8FBE,2021-10-25 14:56:44+00
CUDGEGONG,RMS,Cudgegong Truck Rest Area,,,-32.82491,149.81364,MID WESTERN REGIONAL,WESTERN REGION,36.77km from Mudgee turnoff,CASTLEREAGH HIGHWAY,0000018,1110,A2,"0000018,1110,A2",,LEFT,REST AREA,BOTH LIGHT AND HEAVY VEHICLES,FALSE,FALSE,FALSE,FALSE,FALSE,FALSE,FALSE,FALSE,BOTH,FALSE,FALSE,FALSE,FALSE,FALSE,FALSE,FALSE,0,FALSE,FALSE,FALSE,FALSE,FALSE,FALSE,FALSE,FALSE,FALSE,NONE,BOTH,D1D9E9E5195F1B02,2021-10-25 14:56:44+00
COWAN,RMS,Former RTA Weighbridge,,,-33.61148,151.15895,HORNSBY,SYDNEY HARBOUR ZONE,29.4km North start of Pacific Hwy,PACIFIC HWY,0000010,0830,B1,"0000010,0830,B1",,RIGHT,REST AREA,BOTH LIGHT AND HEAVY VEHICLES,FALSE,FALSE,FALSE,FALSE,FALSE,FALSE,FALSE,FALSE,PRESCRIBED,FALSE,FALSE,FALSE,FALSE,TRUE,FALSE,FALSE,2,FALSE,FALSE,FALSE,FALSE,FALSE,FALSE,FALSE,FALSE,FALSE,NONE,,E1B76F67B79B5E14,2021-10-25 14:56:44+00
BOURKE,RMS,Beemery,,,-30.00391,146.35969,BOURKE,WESTERN REGION,43km From Bourke,KAMILAROI HIGHWAY,0000029,0750,A4,"0000029,0750,A4",,LEFT,REST AREA,BOTH LIGHT AND HEAVY VEHICLES,FALSE,TRUE,FALSE,FALSE,FALSE,TRUE,FALSE,FALSE,BOTH,FALSE,TRUE,FALSE,FALSE,FALSE,FALSE,TRUE,0,FALSE,FALSE,FALSE,FALSE,FALSE,FALSE,FALSE,FALSE,FALSE,NONE,BOTH,A55F68AC26B1A126,2021-10-25 14:56:44+00
JACKY BULBIN FLAT,RMS,Bundjalung - Devils Pulpit SF,,OPEN,-29.26235,153.2304,RICHMOND VALLEY,NORTHERN REGION,67.9km North of Grafton,Pacific Highway,0000010,2945,B2,"0000010,2945,B2",PHYSICAL SEPARATION,LEFT,REST AREA,BOTH LIGHT AND HEAVY VEHICLES,FALSE,FALSE,FALSE,FALSE,FALSE,TRUE,FALSE,TRUE,PRESCRIBED,TRUE,FALSE,FALSE,FALSE,TRUE,FALSE,TRUE,3,FALSE,FALSE,FALSE,FALSE,FALSE,FALSE,FALSE,FALSE,FALSE,WATER TRUCK,,BB2E7DD92F4C04DF,2021-10-25 14:56:44+00
GILLENBAH,OTHER,Gillenbah Service Centre,N,OPEN,-34.76206,146.54086,NARRANDERA,SOUTH WEST REGION,106km from Jerilderie and 2km to Narrandera,NEWELL HIGHWAY,0000017,2240,A1,"0000017,2240,A1",PHYSICAL SEPARATION,LEFT,HIGHWAY SERVICE CENTRE,BOTH LIGHT AND HEAVY VEHICLES,FALSE,TRUE,FALSE,FALSE,FALSE,TRUE,FALSE,TRUE,BOTH,TRUE,TRUE,FALSE,FALSE,TRUE,FALSE,TRUE,6,FALSE,FALSE,FALSE,FALSE,FALSE,TRUE,TRUE,FALSE,FALSE,TOWN SUPPLY,BOTH,0816B75864BAD07C,2021-10-25 14:56:44+00
NORTH YALGOGRIN,RMS,Yalgogrin Rest Area,,,-33.84466,146.82883,BLAND,SOUTH WEST REGION,36km from West Wyalong and 220km to Hay,MID WESTERN HIGHWAY,0000006,0675,A1,"0000006,0675,A1",,LEFT,REST AREA,LIGHT VEHICLES ONLY,FALSE,TRUE,FALSE,FALSE,FALSE,TRUE,FALSE,FALSE,BOTH,FALSE,TRUE,FALSE,FALSE,TRUE,FALSE,TRUE,0,FALSE,FALSE,FALSE,FALSE,FALSE,FALSE,FALSE,FALSE,FALSE,NONE,BOTH,8255A08016B194E9,2021-10-25 14:56:44+00
GOOLGOWI,COUNCIL,Goolgowi,,,-33.98187,145.71063,CARRATHOOL,SOUTH WEST REGION,146km from West Wyalong and 109km to Hay,ZARA ST,0000006,0770,A1,"0000006,0770,A1",,LEFT,PARKING AREA,BOTH LIGHT AND HEAVY VEHICLES,FALSE,FALSE,FALSE,FALSE,FALSE,TRUE,FALSE,FALSE,BOTH,FALSE,FALSE,FALSE,FALSE,TRUE,FALSE,FALSE,2,FALSE,FALSE,FALSE,FALSE,FALSE,FALSE,FALSE,FALSE,FALSE,NONE,BOTH,2A0871D348278436,2021-10-25 14:56:44+00
ATTUNGA,COUNCIL,Attunga,,,-30.92921,150.84675,TAMWORTH,NORTHERN REGION,21.5km North of Tamworth,TAMWORTH-YETMAN RD,0000063,0060,A2,"0000063,0060,A2",,RIGHT,REST AREA,BOTH LIGHT AND HEAVY VEHICLES,FALSE,FALSE,FALSE,FALSE,FALSE,TRUE,FALSE,FALSE,BOTH,TRUE,FALSE,FALSE,FALSE,TRUE,FALSE,TRUE,2,FALSE,FALSE,FALSE,FALSE,FALSE,FALSE,FALSE,FALSE,FALSE,NONE,BOTH,4F53F7173F9063B2,2021-10-25 14:56:44+00
DRAKE VILLAGE,COUNCIL,Drake - Underwood Park,,,-28.92741,152.37548,TENTERFIELD,NORTHERN REGION,77km West of Casino,FAIRFIELD STREET,0000016,0410,A1,"0000016,0410,A1",,LEFT,REST AREA,LIGHT VEHICLES ONLY,FALSE,TRUE,FALSE,FALSE,TRUE,TRUE,FALSE,FALSE,BOTH,FALSE,TRUE,FALSE,FALSE,TRUE,FALSE,TRUE,2,FALSE,FALSE,FALSE,FALSE,FALSE,FALSE,FALSE,FALSE,FALSE,RAINWATER TANK,BOTH,A72B5A24F5F3A193,2021-10-25 14:56:44+00
SLEEPY HOLLOW,RMS,Sleepy Hollow Southbound,,OPEN,-28.41424,153.52543,BYRON,NORTHERN REGION,59.3km North of Ballina,PACIFIC HIGHWAY,0000010,3305,C1,"0000010,3305,C1",PHYSICAL SEPARATION,RIGHT,REST AREA,BOTH LIGHT AND HEAVY VEHICLES,FALSE,TRUE,FALSE,FALSE,TRUE,TRUE,FALSE,TRUE,COUNTER,TRUE,TRUE,FALSE,FALSE,TRUE,FALSE,TRUE,3,FALSE,FALSE,FALSE,FALSE,FALSE,FALSE,FALSE,FALSE,FALSE,RAINWATER TANK,,A03F27B08DD0F4FB,2021-10-25 14:56:44+00
MOUNT SEAVIEW,RMS,Mount Seaview,,OPEN,-31.40359,152.25535,PORT MACQUARIE - HASTINGS,NORTHERN REGION,58.4km West of Wauchope,OXLEY HIGHWAY,0000011,0350,A1,"0000011,0350,A1",PHYSICAL SEPARATION,RIGHT,REST AREA,LIGHT VEHICLES ONLY,FALSE,FALSE,FALSE,FALSE,FALSE,TRUE,FALSE,TRUE,COUNTER,FALSE,FALSE,FALSE,FALSE,TRUE,FALSE,TRUE,0,FALSE,FALSE,FALSE,FALSE,FALSE,FALSE,FALSE,FALSE,FALSE,NONE,,ECFB465403684C7B,2021-10-25 14:56:44+00
DOYLES RIVER,RMS,Stockyard Creek,,OPEN,-31.40262,152.12402,PORT MACQUARIE - HASTINGS,NORTHERN REGION,80.4km West of Wauchope,OXLEY HIGHWAY,0000011,0360,A1,"0000011,0360,A1",PHYSICAL SEPARATION,LEFT,REST AREA,LIGHT VEHICLES ONLY,FALSE,FALSE,FALSE,FALSE,FALSE,TRUE,FALSE,TRUE,BOTH,FALSE,FALSE,FALSE,FALSE,TRUE,FALSE,TRUE,2,FALSE,FALSE,FALSE,FALSE,FALSE,FALSE,FALSE,FALSE,FALSE,RAINWATER TANK,BOTH,F5815A60625B30C5,2021-10-25 14:56:44+00
MOUNT SEAVIEW,RMS,Gingers Creek,,OPEN,-31.39916,152.10856,PORT MACQUARIE - HASTINGS,NORTHERN REGION,82.4km West of Wauchope,OXLEY HIGHWAY,0000011,0360,A1,"0000011,0360,A1",PHYSICAL SEPARATION,RIGHT,REST AREA,BOTH LIGHT AND HEAVY VEHICLES,FALSE,FALSE,FALSE,FALSE,FALSE,TRUE,FALSE,TRUE,BOTH,FALSE,FALSE,FALSE,FALSE,TRUE,FALSE,TRUE,0,FALSE,FALSE,FALSE,FALSE,FALSE,FALSE,FALSE,FALSE,FALSE,NONE,BOTH,16EA756143B0F026,2021-10-25 14:56:44+00
WIANGAREE,COUNCIL,Wiangaree Pond,,,-28.5132,152.96201,KYOGLE,NORTHERN REGION,13.2km North of Kyogle,SUMMERLAND WAY,0000083,0410,A6,"0000083,0410,A6",,RIGHT,REST AREA,LIGHT VEHICLES ONLY,FALSE,FALSE,FALSE,FALSE,FALSE,TRUE,FALSE,FALSE,BOTH,FALSE,FALSE,FALSE,FALSE,TRUE,FALSE,TRUE,1,FALSE,FALSE,FALSE,FALSE,FALSE,FALSE,FALSE,FALSE,FALSE,RAINWATER TANK,BOTH,BF4BA9F5EF342439,2021-10-25 14:56:44+00
SLEEPY HOLLOW,RMS,Sleepy Hollow Northbound,,OPEN,-28.42383,153.52032,BYRON,NORTHERN REGION,58.2km North of Ballina,PACIFIC HIGHWAY,0000010,3305,B1,"0000010,3305,B1",PHYSICAL SEPARATION,LEFT,REST AREA,BOTH LIGHT AND HEAVY VEHICLES,FALSE,TRUE,FALSE,FALSE,TRUE,TRUE,FALSE,TRUE,PRESCRIBED,TRUE,TRUE,FALSE,FALSE,TRUE,FALSE,TRUE,3,FALSE,FALSE,FALSE,FALSE,FALSE,FALSE,FALSE,FALSE,FALSE,RAINWATER TANK,,FC4A9C273BFC36B7,2021-10-25 14:56:44+00
TYAGARAH,RMS,Tyagarah,,OPEN,-28.59784,153.54471,BYRON,NORTHERN REGION,36.2km North of Ballina,PACIFIC HIGHWAY - TYAGARAH,0000010,3231,B4,"0000010,3231,B4",PHYSICAL SEPARATION,LEFT,REST AREA,BOTH LIGHT AND HEAVY VEHICLES,FALSE,TRUE,FALSE,FALSE,TRUE,TRUE,FALSE,FALSE,PRESCRIBED,FALSE,TRUE,FALSE,FALSE,TRUE,FALSE,TRUE,2,FALSE,FALSE,FALSE,FALSE,FALSE,FALSE,FALSE,FALSE,FALSE,RAINWATER TANK,,75A33500F3BB3C5D,2021-10-25 14:56:44+00
GULMARRAD,OTHER,Ferry Park - Maclean,,,-29.47233,153.20503,CLARENCE VALLEY,NORTHERN REGION,41.3km North of Grafton,PACIFIC HIGHWAY,0860010,2835,A1,"0860010,2835,A1",,LEFT,REST AREA,LIGHT VEHICLES ONLY,FALSE,TRUE,FALSE,FALSE,FALSE,TRUE,FALSE,FALSE,BOTH,FALSE,TRUE,FALSE,FALSE,TRUE,FALSE,TRUE,2,FALSE,FALSE,TRUE,FALSE,FALSE,FALSE,FALSE,FALSE,FALSE,NONE,BOTH,D9EC20E11BAB49F9,2021-10-25 14:56:44+00
GUNNEDAH,RMS,Soil Conservation,,OPEN,-31.02524,150.27444,GUNNEDAH,NORTHERN REGION,74.3km North of Quirindi,KAMILAROI HIGHWAY,0000029,0145,A1,"0000029,0145,A1",PHYSICAL SEPARATION,RIGHT,REST AREA,LIGHT VEHICLES ONLY,FALSE,FALSE,FALSE,FALSE,FALSE,TRUE,FALSE,FALSE,BOTH,FALSE,FALSE,FALSE,FALSE,TRUE,FALSE,TRUE,0,FALSE,FALSE,FALSE,FALSE,FALSE,FALSE,FALSE,FALSE,FALSE,RAINWATER TANK,BOTH,90C0EDEDCE3F56A8,2021-10-25 14:56:44+00
GUNNEDAH,RMS,Blue Vale Road,,,-30.935,150.2005,GUNNEDAH,NORTHERN REGION,30.8km South of Boggabri,KAMILAROI HIGHWAY,0000029,0201,A1,"0000029,0201,A1",,RIGHT,PARKING AREA,HEAVY VEHICLES ONLY,FALSE,FALSE,FALSE,FALSE,FALSE,TRUE,FALSE,FALSE,BOTH,FALSE,FALSE,FALSE,FALSE,TRUE,FALSE,FALSE,0,FALSE,FALSE,FALSE,FALSE,FALSE,FALSE,FALSE,FALSE,FALSE,NONE,BOTH,57B45B9F5B18C137,2021-10-25 14:56:44+00
GUNNEDAH,RMS,Greenwood Grange,,,-30.9231,150.18741,GUNNEDAH,NORTHERN REGION,9.2km North of Gunnedah,KAMILAROI HIGHWAY,0000029,0201,A1,"0000029,0201,A1",,LEFT,PARKING AREA,BOTH LIGHT AND HEAVY VEHICLES,FALSE,FALSE,FALSE,FALSE,FALSE,TRUE,FALSE,FALSE,BOTH,FALSE,FALSE,FALSE,FALSE,TRUE,FALSE,FALSE,0,FALSE,FALSE,FALSE,FALSE,FALSE,FALSE,FALSE,FALSE,FALSE,NONE,BOTH,A9408AAD72498B5E,2021-10-25 14:56:44+00
RED HILL,COUNCIL,Lions Park - Barraba,,,-30.42085,150.6163,TAMWORTH,NORTHERN REGION,40.3km North of Tamworth (3.2km South of Barraba),TAMWORTH-YETMAN RD,0000063,0160,A3,"0000063,0160,A3",,RIGHT,REST AREA,BOTH LIGHT AND HEAVY VEHICLES,FALSE,FALSE,FALSE,FALSE,TRUE,TRUE,FALSE,FALSE,BOTH,TRUE,FALSE,FALSE,FALSE,TRUE,FALSE,TRUE,2,FALSE,FALSE,FALSE,FALSE,FALSE,FALSE,FALSE,FALSE,FALSE,RAINWATER TANK,BOTH,A522F782C16CCC7E,2021-10-25 14:56:44+00
KLORI,COUNCIL,Lions Park,,,-30.8042,150.75324,TAMWORTH,NORTHERN REGION,38.3km North of Tamworth,TAMWORTH-YETMAN RD,0000063,0060,A2,"0000063,0060,A2",,LEFT,REST AREA,LIGHT VEHICLES ONLY,FALSE,FALSE,FALSE,FALSE,FALSE,TRUE,FALSE,FALSE,BOTH,FALSE,FALSE,FALSE,FALSE,TRUE,FALSE,TRUE,1,FALSE,FALSE,FALSE,FALSE,FALSE,FALSE,FALSE,FALSE,FALSE,RAINWATER TANK,BOTH,5F25EB607D2EFF3F,2021-10-25 14:56:44+00
WARIALDA RAIL,RMS,Ti Tree Creek,,OPEN,-29.61379,150.5437,GWYDIR,NORTHERN REGION,30.6km North of Bingara,TAMWORTH-YETMAN RD,0000063,0340,A1,"0000063,0340,A1",PHYSICAL SEPARATION,LEFT,REST AREA,LIGHT VEHICLES ONLY,FALSE,FALSE,FALSE,FALSE,FALSE,TRUE,FALSE,TRUE,BOTH,FALSE,FALSE,FALSE,FALSE,TRUE,FALSE,TRUE,0,FALSE,FALSE,FALSE,FALSE,FALSE,FALSE,FALSE,FALSE,FALSE,NONE,BOTH,D9F7CCEF46E8EF41,2021-10-25 14:56:44+00
HOWARDS GRASS,RMS,Lions Park,,OPEN,-28.78882,153.30598,LISMORE,NORTHERN REGION,4.2km North of Lismore,Lismore-Bangalow Road,0000065,0045,A1,"0000065,0045,A1",PHYSICAL SEPARATION,LEFT,REST AREA,BOTH LIGHT AND HEAVY VEHICLES,FALSE,FALSE,FALSE,FALSE,FALSE,FALSE,FALSE,FALSE,BOTH,FALSE,FALSE,FALSE,FALSE,TRUE,FALSE,TRUE,0,FALSE,FALSE,FALSE,FALSE,FALSE,FALSE,FALSE,FALSE,FALSE,NONE,BOTH,46A5F936D8409DEB,2021-10-25 14:56:44+00
SANDY HILL,STATE FORESTS,Crooked Creek,,,-28.92718,152.31254,TENTERFIELD,NORTHERN REGION,85km West of Casino,BRUXNER HIGHWAY,0000016,0420,A2,"0000016,0420,A2",,LEFT,REST AREA,LIGHT VEHICLES ONLY,FALSE,TRUE,FALSE,FALSE,FALSE,FALSE,FALSE,FALSE,BOTH,FALSE,TRUE,FALSE,FALSE,TRUE,FALSE,TRUE,1,FALSE,FALSE,FALSE,FALSE,FALSE,FALSE,FALSE,FALSE,FALSE,WATER TRUCK,BOTH,E51DA1BE297F9600,2021-10-25 14:56:44+00
